name,lat,lon
50575088506_cebba4ae6e.jpg,45.091285,7.635111
50572295781_9f1012d914.jpg,45.064132,7.698390
50572116956_098698278b.jpg,45.057319,7.692382
50571361753_6613754ebe.jpg,45.077028,7.638459
50572115792_8e7d59dfc5.jpg,45.062662,7.698776
50570140082_08e11d28e3.jpg,45.063760,7.696309
50459289912_ea1bf0279a.jpg,45.051543,7.397543
50298052886_6d0d5437c3.jpg,45.065668,7.681996
50251193656_e4bc5e456e.jpg,45.074748,7.697231
50250541973_1d1918d501.jpg,45.074748,7.697231
50251189251_3d827a2f3e.jpg,45.074748,7.697231
50251186311_015fdba939.jpg,45.074748,7.697231
50244055266_a9a9ea7ca2.jpg,45.085177,7.666171
50244053891_2b19837d13.jpg,45.065196,7.672169
50243418143_b93cf3b3b0.jpg,45.058075,7.666182
50236821832_1a5c2af99c.jpg,45.082056,7.664583
50236820287_842aa30066.jpg,45.058742,7.652095
50236603036_806af8395f.jpg,45.077138,7.669401
50297379753_55af0c9c22.jpg,45.073041,7.681385
50297376623_4d8965e1fc.jpg,45.065668,7.681996
50250722908_bb39dfdcfe.jpg,45.079503,7.683262
50251563962_be2ca24f3c.jpg,45.079306,7.683155
50251383717_7453db8ef3.jpg,45.074748,7.697231
50250534148_15404db762.jpg,45.074748,7.697231
50093429036_22e6f5520d.jpg,45.028694,7.663704
50063591383_e2ff7e1250.jpg,45.032318,7.664948
44287332511_578f563c54.jpg,45.062412,7.698948
49884943173_651bede71f.jpg,45.070792,7.686438
49882255782_b9d46f48e7.jpg,45.028542,7.663114
49828720877_653c076707.jpg,45.072145,7.684936
49816345732_0eb3867df0.jpg,45.072873,7.684292
49815239437_d410d81ebc.jpg,45.071474,7.674422
49808985636_521baeb1eb.jpg,45.062412,7.677040
49804998913_054638d585.jpg,45.031873,7.673091
49757198063_6e45490d79.jpg,45.042076,7.670903
49970325926_4bb4c11be6.jpg,45.032285,7.646971
49969812108_bfb203bbaa.jpg,45.032285,7.646971
49970324866_369d2ab367.jpg,45.032286,7.646972
49769350943_0cd66f1268.jpg,45.072935,7.685812
49743131283_a82f7961ec.jpg,45.076907,7.679035
49730682857_46fb33dee3.jpg,45.054568,7.684292
49730362136_d5f8547cfd.jpg,45.068322,7.689968
49729817708_3e62037a84.jpg,45.068193,7.690258
49729817673_1cb1a7fc2f.jpg,45.066148,7.675141
49737739652_83ba1c55f9.jpg,45.074336,7.681641
49722319633_5161c30227.jpg,45.067950,7.684505
49718732348_aac011ddc1.jpg,45.033508,7.658071
49703015293_d654d4c659.jpg,45.073055,7.680833
49714918048_b0314a7463.jpg,45.033717,7.658060
49682574997_8f639b871e.jpg,45.062881,7.678906
49675926837_ec039f74db.jpg,45.068534,7.692146
49675098158_d9b5c22d43.jpg,45.069080,7.693079
49668839428_2256bc1d13.jpg,45.106227,7.341173
49679972426_4eef3542d0.jpg,45.068936,7.693111
49596714588_5eda3caf79.jpg,45.046111,7.466111
49602549746_0d312d31bd.jpg,45.058133,7.683777
49588757742_9c531142d2.jpg,44.908550,7.703540
49284175362_ce6b6c150a.jpg,45.035555,7.513888
49283493858_a4c7c49323.jpg,45.035555,7.514166
30944283258_628df68d5e.jpg,45.059676,7.697339
50572324657_bc9006ce23.jpg,45.085929,7.718968
50251382722_f521de3284.jpg,45.074748,7.697231
50251188046_2400121b31.jpg,45.074748,7.697231
50298211932_062b8431f1.jpg,45.073041,7.681385
29585720187_fbd0b9f6fd.jpg,45.072815,7.686738
50251373926_12061b8d38.jpg,45.079308,7.683659
50244201486_0c76ba5c53.jpg,45.037775,7.712252
42917620020_d8446f3ed6.jpg,45.068519,7.686953
49985339471_7ee3701322.jpg,45.032062,7.658402
49985339026_4838c19324.jpg,45.032062,7.658402
49985338651_d91d093904.jpg,45.032350,7.657798
49984818283_3f1c5370cf.jpg,45.032039,7.657329
49984817743_d0f21414c8.jpg,45.032286,7.657805
49984817238_b37d3451fb.jpg,45.032176,7.657047
49985593837_7c5633f914.jpg,45.032159,7.657200
49985335896_37b57b602b.jpg,45.032617,7.656787
49984814663_12291b1334.jpg,45.032657,7.656420
49985334061_7eec4f7b41.jpg,45.032587,7.656379
49985333556_c852418a72.jpg,45.032490,7.656259
49740334422_e87f3d7a72.jpg,45.069216,7.682533
49730362161_aae05e059f.jpg,45.074217,7.704720
49602549761_09e1aa0115.jpg,45.063472,7.680066
49530529077_e4b5638463.jpg,45.064858,7.697988
49985597262_633a8ab21f.jpg,45.031986,7.658643
49985595647_93117bb13c.jpg,45.032302,7.656661
49984815613_f221ddcdf7.jpg,45.032272,7.656779
49985334891_7bd469fd9b.jpg,45.032265,7.656782
49315641513_8bf5898377.jpg,45.060647,7.676932
50236667772_2bfb785575.jpg,45.076064,7.659509
50198442253_9b122392b0.jpg,44.995412,7.604491
49797607391_30b165696b.jpg,45.048415,7.683702
49792839052_b89951b45c.jpg,45.081505,7.655882
49495626847_e9ee99db43.jpg,45.070472,7.684766
49479329211_9b8512bd0b.jpg,45.030468,7.656172
49407855897_20e6773731.jpg,45.073028,7.574504
48932276862_e79cce6da5.jpg,45.134790,7.627934
48948006081_f0d694793d.jpg,45.067741,7.681477
48947489608_ab7be3ef8c.jpg,45.065833,7.685000
48948035711_06cbcf5d99.jpg,45.065833,7.685000
48948035136_df6e066dfb.jpg,45.065833,7.685000
48948034876_e6b2c1e2ab.jpg,45.065833,7.685000
48948034626_42e45397c4.jpg,45.065833,7.685000
48948229137_1d1fb2c7c6.jpg,45.065833,7.685000
48948033841_0f31b6195b.jpg,45.068688,7.686186
48948033536_44cd71b4ac.jpg,45.068611,7.685833
48948228212_d40716bf9b.jpg,45.068611,7.685833
48948227317_df03cf5bd5.jpg,45.069722,7.680833
48947485853_df3d15e702.jpg,45.069722,7.680833
48948226842_4604878c56.jpg,45.069722,7.680833
48948225872_c5871760c9.jpg,45.066111,7.693611
48948030361_1760be3484.jpg,45.063888,7.696666
48948030081_66429b6514.jpg,45.062777,7.698055
48948224482_f886dd33e8.jpg,45.062577,7.698755
48948224252_bdfe4a5b2c.jpg,45.062688,7.698797
48948028901_90acef3271.jpg,45.062722,7.698788
48947482308_7f04810e7c.jpg,45.062500,7.698611
48948223312_8bbef7135c.jpg,45.062500,7.698611
48948027721_ef5e5d2cec.jpg,45.062886,7.695366
48947481053_dfd21728d7.jpg,45.063055,7.695000
48948027176_0d4708b7c5.jpg,45.063055,7.695000
48947480463_c499d9c7b6.jpg,45.063055,7.695000
48948221172_8aac35c413.jpg,45.063055,7.695000
48947477863_63fd31464d.jpg,45.070555,7.684722
48948024006_3a3cdf5e1d.jpg,45.070555,7.684722
48947477033_95903971f8.jpg,45.070138,7.686263
48948023201_5650321380.jpg,45.070197,7.686277
48948022891_e1b92f6fd5.jpg,45.070197,7.686277
48948022591_5ff35c0791.jpg,45.070000,7.686111
48947475478_e4e2f0c93a.jpg,45.070000,7.686111
48947475178_45306fda3c.jpg,45.071963,7.686230
48948021161_c06652f556.jpg,45.072086,7.686438
48947474313_c8d200868f.jpg,45.072086,7.686438
48948020571_48779fcfdb.jpg,45.072086,7.686438
48948020356_169da74520.jpg,45.072086,7.686438
48948020056_746d109ab7.jpg,45.071944,7.686388
48948214382_e627104115.jpg,45.071944,7.686388
48947472788_7043d956c2.jpg,45.071944,7.686388
48948019041_0fd208d66a.jpg,45.071944,7.686388
48948018686_eff7b0df77.jpg,45.071944,7.686388
48948213147_02def54509.jpg,45.071944,7.686388
48948212792_47ceec4b36.jpg,45.071944,7.686388
48947470513_3248fb2c4c.jpg,45.071944,7.686388
48948211552_222015f2d5.jpg,45.074113,7.684058
48948211227_8ee8eb96d2.jpg,45.074166,7.684166
48948015691_bd006457d8.jpg,45.076072,7.684058
48879030198_39e1322d80.jpg,45.059843,7.697467
48948036541_e69eeffb8f.jpg,45.065833,7.685000
48948231417_95b112c82a.jpg,45.065833,7.685000
48947489008_69d76f2da0.jpg,45.065833,7.685000
48948033001_4ca65c7571.jpg,45.068333,7.685555
48948031496_69a16c9c79.jpg,45.069722,7.680833
48948029771_51a874e390.jpg,45.062777,7.698055
48948028071_0f96ae098f.jpg,45.062766,7.695694
48947480148_d317650e6e.jpg,45.063055,7.695000
48948024641_250f852122.jpg,45.070191,7.684727
48947475803_e92865c224.jpg,45.070000,7.686111
48947474913_32c9fff8b6.jpg,45.071930,7.686316
48948227657_535d00ba7f.jpg,45.069722,7.680833
48948226147_d7b9ef23c1.jpg,45.066111,7.693611
48948225657_733a880e54.jpg,45.065277,7.695833
48947477293_e2811b3fd1.jpg,45.070555,7.684722
48948016281_11724ed77d.jpg,45.074711,7.684502
48948210592_dbcfd5cd48.jpg,45.075744,7.684252
48947468488_5bf66fc033.jpg,45.076183,7.683894
48948209382_7185fe503c.jpg,45.076144,7.683686
48948014426_c54d461f7a.jpg,45.076047,7.683477
48948208217_a7b32573be.jpg,45.075991,7.683377
48948207667_288ee3fc5a.jpg,45.075752,7.683763
48947466163_943939c820.jpg,45.076147,7.681861
48947465893_a71c69d16f.jpg,45.076416,7.681686
48947465633_84266a04d5.jpg,45.076463,7.681394
48948011521_51293df25c.jpg,45.076644,7.680922
48948010746_d6ca6b33cc.jpg,45.076625,7.678655
48947464178_aea0fac452.jpg,45.076461,7.679022
48947463803_dc6bfa58a0.jpg,45.076575,7.679155
48948204272_f907d78d3c.jpg,45.076633,7.679127
48948203037_d6ca589e0b.jpg,45.076388,7.679166
48948202752_db8dc88f99.jpg,45.076388,7.679166
48947459548_5efc3d4ffd.jpg,45.067763,7.682077
48948193592_80ef27e7b9.jpg,45.075497,7.682897
48948011251_cb90e82d4b.jpg,45.077130,7.679180
48948205537_08fcf1d67f.jpg,45.076713,7.678633
48948204567_398fda751a.jpg,45.076633,7.679127
48947463043_f8c6ff5dab.jpg,45.076633,7.679127
48948203622_6facac5853.jpg,45.076633,7.679127
48948203357_81aba8651d.jpg,45.076580,7.678869
48948200802_292d728c77.jpg,45.067741,7.681477
48948015446_55e67043d7.jpg,45.076186,7.683963
48947467983_1835c2f20e.jpg,45.076144,7.683686
48947466808_87c0d61d4d.jpg,45.075927,7.683469
48947461598_539e7920cf.jpg,45.076388,7.679166
42362240410_1835d7bb25.jpg,45.070815,7.684078
42339595660_129063d3c2.jpg,45.019776,7.663918
43494325354_6ec1692170.jpg,45.031189,7.673767
48198538861_a68f05e533.jpg,45.134813,7.624030
44285980975_2105a43e7f.jpg,45.090823,7.670077
29980463648_4099c45ff8.jpg,45.069980,7.658394
43211005472_4ee27b692f.jpg,45.092482,7.663388
40767426622_9159cebf0f.jpg,45.039870,7.686395
48868644383_e9be49b422.jpg,45.152519,7.654452
48850879778_938efdc410.jpg,44.965253,7.841513
48674362851_744d5179cc.jpg,45.093549,7.665603
48661563417_823967b025.jpg,45.072111,7.683541
48657355041_ba8689d6ab.jpg,45.067739,7.682061
48664360991_a94036a17d.jpg,45.092777,7.665903
48642501492_04db340caa.jpg,45.081059,7.766282
48642005708_0996e26d86.jpg,45.081059,7.766282
48624136808_f32e75e977.jpg,45.063648,7.687962
48624486981_fc965e1842.jpg,45.063572,7.688305
48418332161_c909fb3030.jpg,45.092383,7.666740
48403436411_0349d0bb24.jpg,45.092868,7.665989
48403583527_5a2620b72f.jpg,45.092625,7.665560
48394500937_d987096bd3.jpg,45.092807,7.665731
48394500697_893e30ebd1.jpg,45.092292,7.666268
48129255508_9cc187bfc3.jpg,45.059653,7.655861
48119397313_c2e836a051.jpg,45.059759,7.655839
48113179866_75bedd2ba0.jpg,45.059638,7.655646
48113090348_1671691787.jpg,44.845946,7.720062
40922845483_063bf458bd.jpg,45.043869,7.903171
48127339781_9653496e4c.jpg,45.340118,7.820345
48125618816_331521e135.jpg,45.059668,7.655754
48107499027_8ecf14ac73.jpg,45.092595,7.664315
48107498872_82a3cd14a1.jpg,45.059744,7.655839
48102069906_5e30044401.jpg,45.059653,7.655711
48093310631_897a6f1db9.jpg,45.067618,7.682318
48093349228_a6e610c832.jpg,45.067618,7.682318
48078424161_188d523807.jpg,45.092095,7.665538
48066151661_cb21b2eb4e.jpg,45.092943,7.666654
48066202453_7016b252b9.jpg,45.092504,7.666718
48057579182_6a53bd8678.jpg,45.092519,7.665152
48057519223_261ed0537e.jpg,45.092868,7.664659
48055707223_021df46750.jpg,45.063412,7.680859
48031426852_3986cd1024.jpg,45.063606,7.680183
48018561878_b5eba686c0.jpg,45.092807,7.667319
48015489803_144ab8c42d.jpg,45.092807,7.664744
48003769393_9dfebfef33.jpg,45.092640,7.665882
48003873567_9e1c2ffe0d.jpg,45.092610,7.665002
47928515306_47e6b0c436.jpg,45.092974,7.663972
46964021585_3b0b1d89a1.jpg,45.092807,7.666118
48119457622_553a689419.jpg,45.059577,7.655711
31691220367_46bd3f5800.jpg,45.052290,7.699551
45485412715_d7301ac667.jpg,45.058653,7.707898
45089321764_5b6b649631.jpg,45.064722,7.668888
28989626278_74c735d010.jpg,45.023421,7.669111
48769520087_7dac2754fe.jpg,45.061074,7.673122
48756478481_18b9a004dc.jpg,45.073402,7.693897
48756620977_a8eb60f54e.jpg,45.061072,7.673086
48738892012_c2d9f3cb1c.jpg,45.070914,7.686653
48738285616_b06bc8d5f3.jpg,45.333127,7.775176
48730537472_d7f109a360.jpg,45.081872,7.686610
48714121451_f14141be1c.jpg,45.092837,7.665581
48713792223_30b97a70cf.jpg,45.092353,7.666654
48593156732_9fc55441dd.jpg,45.077514,7.683305
48518985771_30d90b623c.jpg,45.069057,7.693111
48389700311_9f317786f2.jpg,45.062935,7.695364
48365151012_0a7bf059a3.jpg,45.063238,7.695879
48360543476_c0599180a4.jpg,45.093049,7.664980
48336999276_52b354b87f.jpg,45.093125,7.666912
48593156907_1a3774250d.jpg,45.077514,7.683305
48454568632_bfb0b35f2d.jpg,45.054041,7.687461
48454410226_cab43dc7b4.jpg,45.058761,7.680222
48390178381_27552a3eff.jpg,45.092777,7.664444
48375172611_a5acbc5aa8.jpg,45.092883,7.666697
48347870337_b6ced5cd71.jpg,45.064633,7.695944
48188762186_8e189960e1.jpg,45.068437,7.689828
48144610842_c610173d9d.jpg,45.069816,7.683241
48290182576_82e5754132.jpg,45.068228,7.694892
48232129471_8cb82f4434.jpg,45.065239,7.680602
48140115337_c08b364da2.jpg,45.337923,7.808747
48043784803_d019bbdb6b.jpg,45.062931,7.679078
48018890148_9930d3c5f2.jpg,44.845826,7.718957
48017959906_28a79f1e91.jpg,45.092610,7.664852
48015354786_c43b78f21a.jpg,45.092504,7.666504
47993473192_e30fc549ef.jpg,45.093216,7.664294
40944545263_92e1d38a8c.jpg,45.068368,7.686738
46986239545_1e4595a9e4.jpg,45.069535,7.683531
46644222825_99f3dee407.jpg,45.071702,7.665764
46639359995_a737bb8f0e.jpg,45.068621,7.686846
47554852161_e60c17da1e.jpg,45.068621,7.686846
40585242303_fedc2be087.jpg,45.029884,7.664165
46827658894_f9b8f6b0d2.jpg,45.029884,7.664165
47538278771_7bfa528e90.jpg,45.030089,7.664079
46621991025_fb07533801.jpg,45.030089,7.664079
47525957551_ba86595c57.jpg,45.033903,7.665281
46610504085_227f8cd4ec.jpg,45.031264,7.663425
46799457404_da3bb6eea8.jpg,45.066841,7.660517
46794820514_b16942af5a.jpg,45.065844,7.693541
46794819344_3a1bb20d1d.jpg,45.062692,7.698594
47465877022_841aaeb9ff.jpg,45.059858,7.697328
46590137075_3392fb4d07.jpg,45.067959,7.682876
47452846852_ec0cdd0234.jpg,45.067959,7.682876
47452844712_cc3c82624e.jpg,45.068065,7.682479
32563403547_7c25cee96b.jpg,45.067201,7.682318
33628615038_0f544828d7.jpg,45.067458,7.682608
47505327651_4ddf841648.jpg,45.068171,7.683091
47502264591_7e75b4ef0b.jpg,45.067686,7.682683
33624489488_bef2e56cec.jpg,45.067458,7.682608
46775183084_92002e6638.jpg,45.073823,7.685301
32556300547_b1397e0095.jpg,45.073823,7.685301
46543836025_756e672ee2.jpg,45.073823,7.685301
46543833155_1ba06c121c.jpg,45.073823,7.685301
46736010014_a05b6815db.jpg,45.073823,7.685301
46736008064_62cd36368e.jpg,45.073823,7.685301
32513796597_84c31f0de4.jpg,45.080839,7.767580
46540310475_ab30ff59c2.jpg,45.080846,7.767945
46726577684_bd1b235721.jpg,45.080452,7.767645
46726575944_6caaa564e5.jpg,45.080892,7.767119
40483677813_492216bd68.jpg,45.080846,7.767945
46534379625_3f2eb13515.jpg,45.080846,7.767945
40483673953_5cc360293b.jpg,45.078642,7.762538
46534377015_6551152737.jpg,45.079884,7.766379
32586879217_1f44d62139.jpg,45.069686,7.719762
33635461448_b08f3174a6.jpg,45.070792,7.686438
40510207613_56c570cfee.jpg,45.070792,7.686438
46534381055_d034b23ca2.jpg,45.080846,7.767945
46532905225_dcc526dbf1.jpg,45.080892,7.767119
46715047194_67690e2499.jpg,45.080248,7.767258
47385349862_b656c69d6d.jpg,45.080248,7.767258
46518127095_51a3913c7f.jpg,45.072338,7.576296
33540499978_628084bb6b.jpg,45.080589,7.766926
33540498828_4432262a5d.jpg,45.080589,7.766926
46501083035_9882c8df41.jpg,45.080589,7.766926
47416144531_40589d4b64.jpg,45.080589,7.766926
47416142321_8f738fe798.jpg,45.080589,7.766926
32452308447_0855dd69bf.jpg,45.073391,7.697263
47341287722_7a3777eb06.jpg,45.073550,7.698680
32452306057_34b6517255.jpg,45.073550,7.698680
47341286332_5fb2d03857.jpg,45.073694,7.699055
47341284792_8228e3b613.jpg,45.073899,7.699817
32410262407_bc37106f9d.jpg,44.965574,7.840590
40383419753_95e617f581.jpg,45.073232,7.685687
47348689801_b7edcb4eac.jpg,45.073232,7.685687
32404952317_7c0f6b2a0b.jpg,45.073475,7.685301
33464948278_cdb4749667.jpg,45.070398,7.682361
46617533394_ffd09c8d49.jpg,45.070398,7.682361
33459653308_3d7f7d5062.jpg,45.076611,7.662448
32393510357_83e440c452.jpg,45.076505,7.662298
32390656217_d047c49d90.jpg,45.073005,7.686975
47280066822_ddeb383274.jpg,45.073005,7.686975
32390644827_f100eedc87.jpg,45.073005,7.686975
40367392643_0058e8737a.jpg,45.072793,7.686223
47280060762_93fcf4e4e7.jpg,45.072793,7.686223
40367387723_a96204f2a0.jpg,45.072793,7.686223
46417743795_db3fbf9459.jpg,45.072793,7.686223
32390624347_93cca2ae04.jpg,45.072975,7.685558
47274667222_f57c30ddcf.jpg,45.076596,7.663414
47274664742_58867bb15a.jpg,45.076596,7.663414
47327149421_5f4d07deef.jpg,45.076596,7.663414
46604144204_3ac0dd4c74.jpg,45.076596,7.663414
32383144097_12ee7f35c5.jpg,45.076611,7.665324
47322282851_7d0c3201c3.jpg,45.072944,7.686749
47269736562_5680893c10.jpg,45.072944,7.686749
33446441158_5853333e6d.jpg,45.072944,7.686749
40356178523_67bea0634a.jpg,45.072944,7.686749
46597698574_6f23a5894c.jpg,45.073740,7.685344
40350426123_cda49c7064.jpg,45.066678,7.681524
40347510353_a308972e7a.jpg,45.066587,7.681878
32364853237_36bd0c7e36.jpg,45.076111,7.650496
47254231312_9c64567d88.jpg,45.076111,7.650496
40339070313_bab31ccb4b.jpg,45.072944,7.686749
40339068903_7c73382f3e.jpg,45.073331,7.686417
47303271851_5d2281087b.jpg,45.076066,7.650625
33427434738_93cf873e3d.jpg,45.076066,7.650625
33427433198_654ea1d929.jpg,45.076066,7.650625
47303124341_1f46f472d7.jpg,45.065897,7.693476
33427300608_407b8f4500.jpg,45.034411,7.666536
33427257958_47a195cc74.jpg,45.073172,7.686878
47300249111_b84b01a8a1.jpg,45.075763,7.646355
47247968382_9a23323556.jpg,45.075763,7.646355
47297103521_c658b26532.jpg,45.074687,7.658007
47240701242_afb59b9f45.jpg,45.034411,7.666536
33408038728_a722c7e6f5.jpg,45.073172,7.686878
33407940938_a0e2f4c194.jpg,45.073172,7.686878
33406150358_5398a92530.jpg,45.054477,7.687597
33554288388_2ffee35568.jpg,45.171219,7.810091
46652134064_6f747da32c.jpg,45.068615,7.684807
46652133564_e4733eed7c.jpg,45.068615,7.684807
47299495962_cddba349f3.jpg,45.073262,7.685666
47299494992_2379411ee7.jpg,45.073262,7.685666
47299492092_a85b85533f.jpg,45.073262,7.685666
46617537534_1a4ff9d092.jpg,45.070398,7.682361
47297110181_961f945344.jpg,45.074687,7.658007
47222187711_28ee60beae.jpg,45.073278,7.685816
46486859384_910a438c8c.jpg,45.071830,7.685279
46474268704_e070c9d4d2.jpg,45.064018,7.696673
32255806717_68785118a9.jpg,45.062889,7.698100
47145983812_bea3061649.jpg,45.062889,7.698100
47145021852_83948fc17e.jpg,45.080808,7.767559
46279886985_d5f193c91d.jpg,45.080808,7.767559
46271757755_5259bddfcc.jpg,45.067398,7.682297
40221188973_ab74ecac86.jpg,45.062760,7.697832
40221184573_6b550ac629.jpg,45.062760,7.697832
47185866161_0ca7148dbb.jpg,45.058153,7.691684
40220585823_55145977de.jpg,45.080808,7.767559
40215535403_0a2c1074ea.jpg,45.067959,7.682876
40214800643_3ee7f487d6.jpg,45.080808,7.767559
46264930485_9d0d186dfc.jpg,45.067686,7.682683
47122172052_2d9f19956c.jpg,45.080437,7.767570
32228762917_bdf7fc39d0.jpg,45.080468,7.767076
46256354895_5f9fd84c27.jpg,45.074861,7.659702
33295201388_133489f384.jpg,45.074838,7.660109
33295199428_19984f30ec.jpg,45.074460,7.659809
33295198598_9d56071ca8.jpg,45.074460,7.659809
47168124561_4f9ebcffe8.jpg,45.080324,7.766840
47114084372_0cf48f22f7.jpg,45.073960,7.659348
46441007194_6c6e188cf7.jpg,45.078763,7.760456
40195996833_8c060cc1f3.jpg,45.073391,7.684786
47108699912_cbdcb94dbb.jpg,45.073656,7.699195
40195317043_82740ea8be.jpg,45.074475,7.660388
46243681275_d0e8ec01cf.jpg,45.073656,7.699195
40192860403_43c8708213.jpg,45.074247,7.661021
47105675232_c033c3de5a.jpg,45.074361,7.660839
46242677105_7430dcf35c.jpg,45.068997,7.685526
47154090341_dee078c8ea.jpg,45.070853,7.657041
32212095447_ebaaf462a4.jpg,45.070656,7.657685
32212095127_b7ebb7cbc0.jpg,45.069989,7.659401
32207708417_41dd1f0500.jpg,45.067534,7.666783
32207376187_aaa2611422.jpg,45.069141,7.686277
46419271494_b70064c4ff.jpg,45.102769,7.763385
47088395002_08d26e87c6.jpg,45.073429,7.685129
47088394102_2883e05414.jpg,45.073520,7.685880
46226443775_814185b471.jpg,45.073126,7.686384
47088391992_f76feab1e6.jpg,45.073126,7.686384
46412542434_416ddd18be.jpg,45.068231,7.682844
47075626782_9edbe0f8f6.jpg,45.071808,7.685687
47127912351_d88539eea9.jpg,45.074157,7.688037
47120388981_c28fb4651b.jpg,45.068027,7.682501
40152295023_cf764cdae0.jpg,45.069216,7.682350
40152292753_741e9020c0.jpg,45.067004,7.681803
47064734312_53c169ffbb.jpg,45.067648,7.687940
47116061691_13c52a65c6.jpg,45.067716,7.681857
46199283655_b4c00d6a73.jpg,45.028072,7.597582
46388975664_889bf4a83c.jpg,45.068231,7.682844
32170661627_c870900f81.jpg,45.068421,7.686309
46383156064_2af094f026.jpg,45.068224,7.682211
46383155234_7122af85b2.jpg,45.068224,7.682211
32164241777_10abd51643.jpg,45.068603,7.686556
46373140964_92f76c9f63.jpg,45.071800,7.685751
46373138794_05cc7bcfa1.jpg,45.071262,7.686331
32145270677_36ff55b25d.jpg,45.067799,7.684711
46173395335_222f2e27b1.jpg,45.067095,7.682619
32144339097_24674d6523.jpg,45.072103,7.684807
47076356041_d9d1dbffd6.jpg,45.066708,7.681535
47024236602_927cc50433.jpg,45.066625,7.681878
47023896102_6ae2ab17f0.jpg,45.062722,7.697789
47013017432_a7d7b0ee37.jpg,45.062684,7.698132
46340606214_0853d901a4.jpg,45.069216,7.682350
46141116085_b7aa483e1f.jpg,45.067443,7.681814
46138715745_4e17518aef.jpg,45.068974,7.683016
33165945728_f475a9bb65.jpg,45.071376,7.684786
46127117665_d1ece25566.jpg,45.070292,7.684314
32079528117_e177eec888.jpg,45.065882,7.693809
32079526487_de3102133f.jpg,45.072353,7.685848
33135492438_850ce4dac2.jpg,45.068277,7.682769
46958940312_73bee6010f.jpg,45.068277,7.682769
32069539287_59e152df4d.jpg,45.063518,7.697424
46958936612_9099f033f2.jpg,45.063851,7.696909
46987591821_c62453ce03.jpg,45.060062,7.697467
46263153314_29f62e9e52.jpg,45.060062,7.697467
46987588821_fa4a920aaf.jpg,45.060062,7.697467
40022656963_f7800f4903.jpg,45.060062,7.697467
32045298317_040aea8659.jpg,44.995450,7.604309
46968639511_c6f7381e73.jpg,45.059858,7.697328
46244295634_e035e43260.jpg,45.059858,7.697328
47101844282_79cf76e222.jpg,45.067443,7.666933
46222035695_0485173248.jpg,45.067875,7.682640
40121327863_9822c37515.jpg,45.072134,7.685698
47011732312_f80b7617c1.jpg,45.074748,7.675366
32077684587_59197ed382.jpg,44.995366,7.604577
46274767224_8109493120.jpg,44.995366,7.604577
46268605384_ea7efc5651.jpg,45.016621,7.750114
40003996063_9d29e2f69e.jpg,45.058372,7.707874
46968497221_376ec44bb7.jpg,45.059956,7.697371
33540500988_c064684b5d.jpg,45.080589,7.766926
32452303077_8732c0c61a.jpg,45.073694,7.699055
40383416803_b97d000029.jpg,45.073232,7.685687
40375669303_5c883e9e8e.jpg,45.070398,7.682361
32392032587_5c87f5cb85.jpg,45.073050,7.679615
47332586571_b89c6144ab.jpg,45.073005,7.686975
47332574681_c9b038696e.jpg,45.072793,7.686223
47332572001_1e58819a14.jpg,45.072793,7.686223
46417741245_6b5c181ca3.jpg,45.073179,7.685483
32390620857_0937655a05.jpg,45.073179,7.685483
46417738405_dcdf7d7355.jpg,45.073831,7.686374
47274659572_4400a0604c.jpg,45.076596,7.663414
47372325082_f5c955c07c.jpg,45.070792,7.686438
46652134524_d2277652f1.jpg,45.068615,7.684807
33464938928_a9c22aac36.jpg,45.070398,7.682361
46602044034_d5c79038e1.jpg,45.076611,7.665324
46140255821_45682ac54f.jpg,45.070732,7.663757
46072395242_6f8d501fbf.jpg,45.135672,7.624547
46063429512_f1380b445d.jpg,45.148223,7.595393
46057813932_b1cbbb4fd1.jpg,45.063757,7.691577
46107072781_07e45c290c.jpg,45.063579,7.697360
46057190122_649566deb3.jpg,45.063366,7.696073
45383166924_bdcb96373b.jpg,45.063185,7.698744
32232993428_5a5ed89038.jpg,45.073055,7.684444
31153837407_9bd74bda2b.jpg,45.001583,7.686288
45181011685_51bb571d76.jpg,45.066466,7.688906
45181011565_623f223c9f.jpg,45.064556,7.695826
44261384150_e9ae59d966.jpg,45.092277,7.665817
45164303355_07db0d7f7f.jpg,45.065700,7.693551
46021966342_9fef2b7521.jpg,45.081990,7.718603
45149851765_1326f70b4b.jpg,45.070591,7.634316
45334779564_450f0bb6c7.jpg,45.068641,7.684249
46008715992_bbb276db86.jpg,45.068504,7.684410
45130567345_0bdb73b15c.jpg,45.010369,7.684908
44215123440_d4f3cc7f99.jpg,45.072050,7.576274
46016428601_9cb010db52.jpg,45.072027,7.685558
44188082370_f240cd67e7.jpg,45.073353,7.685837
44188043030_2f8dde7ec7.jpg,45.071666,7.683888
32133077568_9366ced543.jpg,45.073333,7.684722
32131468208_7f3b87765b.jpg,45.059835,7.697371
44181612470_79bc4f3f72.jpg,45.056773,7.688713
32125489258_0673bfa9a0.jpg,45.059865,7.697564
44170256070_2d9dbc4723.jpg,45.074399,7.684164
45926893972_5564f679c1.jpg,45.004637,7.665281
31034713827_9f62cc2fec.jpg,45.072118,7.684829
32100239458_dcc7f4d093.jpg,45.072141,7.684754
45234891294_63192967f3.jpg,45.068307,7.682919
45955590531_47af0d6323.jpg,45.072687,7.685655
45955590181_6647210cd1.jpg,45.073353,7.685837
45955590061_45832b6a95.jpg,45.073353,7.685837
32083926368_32711b327c.jpg,45.079945,7.395966
31015900907_3d09f9dce0.jpg,45.079945,7.395966
45943819631_abca3a9a84.jpg,45.004637,7.665281
45022437505_00c9910f65.jpg,45.045282,7.680763
45918231901_4e336666c3.jpg,45.072141,7.684754
30968633537_6c01e3e588.jpg,45.070883,7.686932
45904403941_01b55e0dd4.jpg,45.031970,7.673392
44982809805_45a381a623.jpg,45.031924,7.673714
45839735762_e8cf5d17da.jpg,45.031894,7.673649
45839730342_50ce7e864d.jpg,45.031894,7.673649
30943189187_2de6e55fb9.jpg,45.077361,7.682468
45149277164_581e5c41de.jpg,45.073444,7.697156
44050545250_474916c312.jpg,45.059972,7.697341
30920114807_c205e67e14.jpg,45.018692,7.665238
44041314090_a1e1743316.jpg,45.059972,7.697341
30910767887_d7f2cc1c5d.jpg,45.317886,7.732261
45798184382_739850ea4f.jpg,45.068680,7.682147
45120918464_6e515d5e50.jpg,45.071762,7.685065
45843542711_d9ebd74d99.jpg,45.001727,7.684127
44930517755_40521d030a.jpg,45.024033,7.670055
45792120422_d3b22bc81a.jpg,45.075032,7.684539
44024642360_f884de12a5.jpg,45.075032,7.684539
44024642160_5d4683c1ab.jpg,45.075032,7.684539
45105784044_264ab81bc3.jpg,45.070180,7.512760
45781081322_563f17ed1b.jpg,45.070090,7.511837
45781019772_417a1a2e74.jpg,45.063656,7.697167
44013422770_d187a44417.jpg,45.064401,7.697060
45780914742_c85fe1222e.jpg,45.064673,7.695729
44013310600_deb16ff7c8.jpg,45.064641,7.697607
44008169630_7c563ee104.jpg,45.074507,7.668746
31953995018_afa36cda91.jpg,45.066187,7.693412
31953989508_0c4b23b5b6.jpg,45.066081,7.693508
45775636892_4e45d32bab.jpg,45.063800,7.696534
44902288565_cd55b3b508.jpg,45.031800,7.673177
45765030552_f3137da4d5.jpg,45.064391,7.696266
43997615460_53d2de07e2.jpg,45.066081,7.693508
31940380378_1a2656d150.jpg,45.018692,7.665238
31931898058_166ee2f372.jpg,45.045813,7.685494
45797517431_2f1ccc679b.jpg,45.073081,7.681703
45792904841_fea4eaa73e.jpg,45.136352,7.622192
45787707391_1b81072147.jpg,45.079945,7.395966
43970611170_48fba382b8.jpg,45.079945,7.395966
45063064604_4d96a3e154.jpg,45.079945,7.395966
43965788240_2182a37ac9.jpg,45.090202,7.636181
45780153641_f1382124b5.jpg,45.083202,7.456519
44853501295_0c19b8e833.jpg,45.066435,7.700350
30823875657_0ace7648f0.jpg,45.072096,7.561082
45027950954_18d6b271fd.jpg,45.072202,7.684743
30781076607_094f4519b3.jpg,45.079945,7.395966
45670549472_df3542479c.jpg,45.080475,7.396609
44996223334_767f781aed.jpg,45.082975,7.393326
31849165258_8072b1c617.jpg,44.996333,7.605702
43898248790_7c14bbcdfc.jpg,45.069072,7.682586
30772332967_c39ca3e5d0.jpg,45.011515,7.825001
44786724615_25a93d7f13.jpg,45.064444,7.670833
45628659282_e43cb665a4.jpg,45.092035,7.667126
45614702702_2831b3a8e2.jpg,45.072997,7.681471
31792585698_8691b6c9ef.jpg,45.062891,7.578120
44938282264_0006f4fc31.jpg,45.092489,7.663650
44748463835_55c3bf04a9.jpg,45.092171,7.663843
44905453004_6f33d9b322.jpg,45.071846,7.685018
45623445061_db48fa8dd7.jpg,45.070376,7.686620
43803517110_cc63147a3f.jpg,45.094186,7.339639
43800923980_be6b9e34c3.jpg,45.069702,7.691155
44892566794_c408ac840b.jpg,45.021702,7.671110
43796076840_861cd4e615.jpg,45.072247,7.576231
44881229374_ffafe8cb35.jpg,45.133307,7.631882
43787431800_2fa0ca7fe5.jpg,45.032463,7.641082
44879321144_ea450a68a6.jpg,45.054443,7.685494
45602940371_275a6d2261.jpg,45.048611,7.685000
44657765965_bd25d6906f.jpg,45.049722,7.685555
44657765565_648d883597.jpg,45.049444,7.685277
31690386738_2ab02a21e9.jpg,45.050277,7.684166
30600415447_6c340f0e16.jpg,45.076808,7.969486
45489602212_a26f306557.jpg,45.032463,7.641082
45489602072_82329a501e.jpg,45.032463,7.641082
44813174154_0f24e7ca2b.jpg,45.134635,7.628942
31654330028_1d6556b1f6.jpg,45.031367,7.721258
45526381091_5cc215788f.jpg,45.032463,7.641082
45526380981_f46f39be28.jpg,45.032463,7.641082
45526380851_3e99b89a93.jpg,45.032463,7.641082
30583703487_b5cbae2471.jpg,45.091966,7.663575
31642884698_32c7cbfcb3.jpg,45.406174,7.738966
43695199470_e39870415c.jpg,45.071527,7.686359
31623809228_0b0e225d8d.jpg,45.360892,7.770005
31616747648_90cacb3c3a.jpg,45.071255,7.686563
31597962948_1b63b7bda7.jpg,45.053635,7.688927
45417856042_76af831160.jpg,45.081984,7.659755
44739956464_d439e886f6.jpg,45.361301,7.769651
45413325102_a1ebbbcaca.jpg,45.360892,7.770005
43647844600_f4cc6e4630.jpg,45.360892,7.770005
30503679117_a86e4a8b94.jpg,45.058537,7.707915
31548894778_d5ec94c941.jpg,45.091141,7.631392
45356886834_aa97e35478.jpg,45.092489,7.666268
31076684887_0b26b47f55.jpg,45.063526,7.696094
31076634407_57beee2ffa.jpg,45.018692,7.665238
45040675305_76bc54c50e.jpg,45.073452,7.701920
44934536805_386eed1574.jpg,45.067863,7.693738
45798261082_179f61f925.jpg,45.069022,7.692877
44934502465_3d9555bde8.jpg,45.062991,7.677486
31976261648_75c17a4235.jpg,45.072119,7.684602
45783831192_92d254b674.jpg,45.018692,7.665238
44016414820_c85b1641e5.jpg,45.018692,7.665238
31940392678_f6c5c6416c.jpg,45.018692,7.665238
43953480760_7055330450.jpg,45.068322,7.682533
30814740657_9ff44e726a.jpg,45.064867,7.686781
45005385604_b3c7527ba8.jpg,45.071959,7.557563
45721123661_7de9be1fda.jpg,44.996344,7.605705
44899005344_bc3e5a067a.jpg,45.384877,7.883466
44706023765_3bddbb8f20.jpg,45.073316,7.680945
45602940441_04d13e31ba.jpg,45.048611,7.685000
43778458770_d49c11accb.jpg,45.031800,7.673177
30654138587_aa33dac655.jpg,45.073103,7.686223
46493727772_549b8f5cd1.jpg,45.067898,7.632097
32671680578_e1ba8d35ff.jpg,45.071666,7.685277
31600775547_0e5ce625a8.jpg,45.072963,7.681138
46485927442_64a60cd308.jpg,45.032463,7.641082
32657941088_da79470ab6.jpg,45.071687,7.688994
44712239540_e87b1ba0ce.jpg,45.040704,7.787557
46475937552_dc1e45ea35.jpg,45.268159,7.481335
31576853427_a21aee8949.jpg,45.040673,7.787590
46516789381_2e52391bb1.jpg,45.137780,7.620563
45603143315_20e3311658.jpg,45.136856,7.621550
46515062131_e34d2369c3.jpg,45.069978,7.390816
31574555687_13dbfdfa78.jpg,45.068611,7.684444
45785960564_d4e7e3728b.jpg,45.071058,7.686288
31565861147_43774f27c3.jpg,45.071687,7.688994
45781450874_eb9df81c0f.jpg,45.133163,7.625606
46504831501_c357ea7d9a.jpg,45.135282,7.624146
44687803270_911d0cb448.jpg,45.129380,7.515408
46502378701_7deecba064.jpg,45.135630,7.624511
46450742562_94c8877711.jpg,45.135540,7.624769
46450608632_787f47ac34.jpg,45.135570,7.624533
45587309065_86f15a68d7.jpg,45.073401,7.685848
32626780198_80abb30f11.jpg,45.055055,7.689991
45774359754_ec6feb21da.jpg,45.031211,7.603633
31548420427_c0943f886a.jpg,45.040704,7.787622
31548415867_9a1eb3afb7.jpg,45.040704,7.787622
45573289985_8315a23db0.jpg,45.067330,7.682468
46430934412_a54cb36529.jpg,45.070398,7.686953
32599705418_137a961da3.jpg,45.067330,7.682468
32596848898_c23c4b92bc.jpg,45.067330,7.682468
32591463868_53e0982b70.jpg,45.067330,7.682468
31519275177_72d4d11d37.jpg,45.092277,7.665517
31517408497_a511803557.jpg,45.069493,7.682136
46447725441_70ebcd41d1.jpg,45.094130,7.972399
31506826917_2443e82202.jpg,45.032463,7.641082
46432612151_bf924edfe0.jpg,45.032463,7.641082
45693947414_eec221a62a.jpg,45.032463,7.641082
44599940630_2c3da9fa4e.jpg,45.057044,7.710795
45497530615_ca7be93901.jpg,45.057044,7.710795
44591049660_3a63fa91b5.jpg,45.032463,7.641082
31466953477_739dabe553.jpg,45.074141,7.614525
46354319612_f191c55040.jpg,45.063997,7.696673
45486793845_3435dfffb4.jpg,45.055462,7.672265
46396990741_81ecbe22da.jpg,45.073119,7.681245
44579470590_3ea8a888b1.jpg,45.097639,7.720234
45671472384_e07a76fe60.jpg,45.032463,7.641082
31446287677_c5c9bb0d19.jpg,45.097639,7.720234
45471771755_3c0911ab54.jpg,45.032463,7.641082
45467832115_c6517308d5.jpg,45.069061,7.684836
45466196525_621b73514c.jpg,45.064669,7.697808
45459643085_365945f314.jpg,45.059789,7.676728
46316846292_8634029cac.jpg,45.042777,7.696666
45452151265_f1d4f3a6da.jpg,45.032463,7.641082
46302740272_beac288302.jpg,45.032463,7.641082
46341557631_c05b0c2ff5.jpg,45.032463,7.641082
46289566812_6c877e9559.jpg,45.040704,7.787622
32467071508_79c90bec9c.jpg,45.059805,7.697306
45425420155_62d1fa28b6.jpg,45.064185,7.696856
45606348224_24c33208fc.jpg,45.072543,7.682780
32455060428_fb38152342.jpg,45.032463,7.641082
45412214695_a86f5db83f.jpg,45.031944,7.659166
45401255025_71e1554018.jpg,45.072687,7.680966
45588660644_1c7ebc8f57.jpg,45.051147,7.687642
46310772221_e02bdb8ae2.jpg,45.080761,7.766952
45586853114_1fe8684048.jpg,45.051147,7.687642
45396620515_fc610eb51f.jpg,45.048975,7.685515
44488802260_fcf5b5fc62.jpg,45.053772,7.689142
44487087160_22347ff9e2.jpg,44.904969,7.729825
46301004151_5ba5caa94b.jpg,45.360091,7.770767
46292952521_312d6e5e43.jpg,45.018692,7.665238
32419751898_16a1b8df24.jpg,45.053772,7.689142
32414358318_e4d7b13295.jpg,45.053772,7.689142
31345812597_96e97e3e23.jpg,45.053772,7.689142
46228393892_0f9f215eea.jpg,45.055462,7.672265
46277749051_2bf05cbff5.jpg,44.905029,7.730298
32403426698_615ec95952.jpg,45.070580,7.684389
44456038010_f5a59fd231.jpg,45.116244,7.488341
31325333567_ba0714ac3a.jpg,45.071815,7.673387
45343385245_de8bbd5f12.jpg,45.060320,7.696738
44432958390_9c66f204ee.jpg,45.004637,7.665281
46198399012_6bec882cb2.jpg,45.147638,7.597222
46248867041_8742a3d127.jpg,45.067701,7.682254
31306521057_9ba50f3c27.jpg,44.906960,7.729911
46190435372_6e3d40de1a.jpg,45.072111,7.576360
45517066404_c3b4a871e1.jpg,45.032463,7.641082
45517066364_3cc6946c00.jpg,45.032463,7.641082
31289626087_4c98d01855.jpg,45.073055,7.681111
46176459102_4b56ee5805.jpg,45.067239,7.682125
46169632702_dc3a523143.jpg,45.018692,7.665238
31280457197_08a3f9bbca.jpg,45.068333,7.686666
31280456957_ae7fea6e2b.jpg,45.068611,7.686666
45303148685_057dd44dc1.jpg,45.032463,7.641082
45303148655_f0ec7a5e1e.jpg,45.032463,7.641082
45293094585_46944462b4.jpg,45.032463,7.641082
31263186717_aaa16e5c89.jpg,45.105977,7.346152
46142344582_fd8011cc92.jpg,45.032463,7.641082
46142344682_73e7ac3584.jpg,45.032463,7.641082
45468042864_bf9df8894e.jpg,45.068800,7.682833
32315961708_8365dbef8b.jpg,45.076551,7.638137
44370115740_bec2da48d3.jpg,45.071687,7.684528
45456651244_399a97f7f7.jpg,45.076551,7.638137
45454945254_ac2e3ec607.jpg,45.072262,7.576339
46177268041_3671142be9.jpg,45.051847,7.601906
46125490792_a2a00fac5e.jpg,45.062594,7.698114
32301822368_b3abc0e541.jpg,45.106325,7.337375
45260093855_8787185e84.jpg,45.062594,7.698114
45436987924_e963c6af19.jpg,45.062594,7.698114
44343605010_814c346224.jpg,45.092480,7.664401
46160270931_1d977577f4.jpg,45.312226,7.921121
31218603547_a4bd23b813.jpg,45.069716,7.683820
32285447098_3d850beefa.jpg,45.070832,7.686138
45425645214_2fa939e006.jpg,45.069716,7.683820
44712238980_4e7c8e593b.jpg,45.040704,7.787557
32633232978_db5cde3d3c.jpg,45.062881,7.698411
32627931508_1e68817795.jpg,45.031355,7.603763
31556617367_90be2ebf78.jpg,45.073822,7.684786
44672321890_d094dca2ee.jpg,45.366936,7.630202
45765774934_31cc25e537.jpg,45.366672,7.629977
45765760274_082847f7cc.jpg,45.365761,7.628383
45576129825_f8c42a600c.jpg,45.368386,7.632380
45576102725_5cc500eb3b.jpg,45.367916,7.631597
45576090455_d01b5c1c6c.jpg,45.368180,7.631886
46437649012_64d8730ceb.jpg,45.321311,7.717483
45765538474_66e1fcb661.jpg,45.321463,7.718897
45565339395_d60fbb1344.jpg,45.060115,7.697049
46469794841_4247d5d437.jpg,45.070717,7.694045
45614441774_a386b2537a.jpg,45.018692,7.665238
31398541337_f06787765e.jpg,45.018692,7.665238
46169636332_19c27b67b4.jpg,45.018692,7.665238
46107697891_a981448a01.jpg,45.069111,7.672208
45376133434_0c78034ec5.jpg,45.069166,7.696111
5351986165_598d60cf83.jpg,45.067898,7.682050
39780559173_7e5690486f.jpg,44.995753,7.604180
46743635661_282a49d5da.jpg,44.995412,7.604459
46678476722_419335e5f6.jpg,44.995412,7.604459
31789642267_006b28180e.jpg,44.995389,7.604856
32849527038_62b7124a77.jpg,44.995336,7.605221
45809070265_e7a13f00a1.jpg,44.995586,7.605628
39753001353_c3a939237a.jpg,45.108548,8.065885
46715450921_6bbe737bbd.jpg,44.995586,7.605628
45988677134_7462d3c0f8.jpg,45.064867,7.686781
39741234053_a8deb279ae.jpg,44.995412,7.604459
46706190401_72c814cbe5.jpg,44.995412,7.604459
45980782034_709656ef02.jpg,45.031737,7.673488
39740167253_84c092c00e.jpg,45.031896,7.673370
45980145314_0e0e70abd7.jpg,45.031911,7.673628
46704782891_c023a0e7ac.jpg,45.031767,7.665420
46651440902_5f7a0634ed.jpg,45.032450,7.667255
46701288701_2af0c23352.jpg,45.030319,7.663918
45975979454_000aff2905.jpg,45.032169,7.664970
32822535518_bca992b56e.jpg,45.073020,7.680044
46642616122_6017e06fb8.jpg,44.995412,7.604459
45970832284_8b4c81b795.jpg,44.995412,7.604459
46692562211_dd86eb42f0.jpg,45.063192,7.677673
45957423094_923028cbab.jpg,45.071687,7.688994
39716938773_ec3a83cd97.jpg,44.995412,7.604459
31738085207_3610b31f39.jpg,45.067614,7.682265
39703777873_17aef5c498.jpg,45.071687,7.688994
46643884751_5f5f0303c4.jpg,45.052290,7.699551
46637116171_5c226045ee.jpg,45.052290,7.699551
31686419867_e5ebe64595.jpg,45.031843,7.673274
45903053084_6c47832a15.jpg,45.031820,7.673767
45706158015_e13ae85cc0.jpg,45.107259,7.642182
39651840023_33c7cb95a0.jpg,45.034262,7.666525
39650606733_28915e2c67.jpg,45.030066,7.664208
46613785961_021622b4a3.jpg,45.071687,7.688994
46613533821_360f68c201.jpg,45.092716,7.665581
39646847423_7776355e5d.jpg,45.032463,7.641082
46606337261_29bcbfc2aa.jpg,45.071687,7.688994
32731633618_4e24369eaf.jpg,45.111605,7.427487
32723190248_f797c6c849.jpg,45.032463,7.641082
44777867390_2e2d0e7ed1.jpg,45.071058,7.686288
46590183621_6f32168569.jpg,45.064412,7.681267
31649129977_a22e12a5cd.jpg,45.062231,7.574998
46531015622_613a418d53.jpg,45.072262,7.576274
31641665957_b0687ee815.jpg,45.032463,7.641082
32708409458_ed31c9e4cd.jpg,45.044527,7.537691
46529036302_7c81e79438.jpg,45.071388,7.685277
44760026520_30c14054b9.jpg,45.069800,7.688896
46524773302_2fe5892b76.jpg,45.111605,7.427487
45661866175_4ba22cebed.jpg,44.946614,7.634682
45847702014_26065daa85.jpg,45.063639,7.696051
31630006637_3da7820ffd.jpg,45.069800,7.688896
45844082624_7b95474ffa.jpg,45.069800,7.688896
32687040588_90e3e30fb8.jpg,45.069716,7.683820
44742034540_061967e16d.jpg,45.068648,7.684239
32682369018_27e66440de.jpg,45.032463,7.641082
32679599568_4c27d4ef54.jpg,45.071687,7.688994
32669392768_9aa3b2f905.jpg,45.032463,7.641082
31596352337_4a3a063672.jpg,45.267683,7.480552
32643879068_217fc231cc.jpg,45.066701,7.660667
32642701778_2432caca2f.jpg,45.032463,7.641082
46453329552_6a53a90611.jpg,45.133102,7.625691
46444276302_e1000f5541.jpg,45.067822,7.682511
31544408107_810c7073b3.jpg,45.349447,7.584985
44628783120_6e73bce1c9.jpg,45.092838,7.666317
46431092811_52f8fb351b.jpg,45.068122,7.692213
46368054062_9faba799ab.jpg,45.055462,7.672265
32546671108_1d0c8867a1.jpg,45.057044,7.710795
45486503105_df430c8937.jpg,45.069972,7.658416
46739732381_edb177045c.jpg,45.080778,7.767269
32853919298_6dbf067454.jpg,45.080778,7.767269
45999031354_994ea4876a.jpg,45.080778,7.767269
45991832594_55769e506d.jpg,45.080778,7.767269
45981443524_9bdddd75c3.jpg,45.080778,7.767269
32828421738_1558118264.jpg,45.080778,7.767269
39736221593_576aa5c4f3.jpg,45.080778,7.767269
39724333993_14f2ec6f70.jpg,45.071687,7.688994
32812557308_f983f90b24.jpg,45.073788,7.698711
31737842217_3870710e32.jpg,45.086301,7.705020
32797426978_c8be9788ec.jpg,45.070747,7.686460
39692917753_c47469188c.jpg,45.070747,7.686460
46650716331_775c4c9b20.jpg,45.084236,7.704634
46573393332_bb32c72090.jpg,45.067822,7.682511
46570385372_a77668e71d.jpg,45.080713,7.766195
32746222918_4f683e920c.jpg,45.067769,7.682490
45690165195_968a87ca8b.jpg,45.073828,7.677844
45835634014_0331a268c0.jpg,45.059835,7.697478
45537816585_4a469f0b14.jpg,45.067458,7.682608
29176900738_fdca9e7d18.jpg,45.023421,7.669111
42330314544_9c1856b8d2.jpg,45.023421,7.669111
42146492105_230df35ff2.jpg,45.023421,7.669111
42330312224_895f5eda96.jpg,45.023421,7.669111
41238609910_d963a61fd2.jpg,45.023421,7.669111
42330310134_3716c24931.jpg,45.023421,7.669111
42330309494_dc22e84cd2.jpg,45.023421,7.669111
42330308464_f9e6a014b8.jpg,45.023421,7.669111
42330308284_557a233f86.jpg,45.023421,7.669111
42146488525_8ff1abdabd.jpg,45.023421,7.669111
42330307974_8b9988c97c.jpg,45.023421,7.669111
42330307564_613a75f333.jpg,45.023421,7.669111
42330306854_04f4433895.jpg,45.023421,7.669111
28179917067_accdacecc4.jpg,45.023421,7.669111
28179916927_7924a314f7.jpg,45.023421,7.669111
41238604960_ef8ee51680.jpg,45.023421,7.669111
28179916697_631e0fbf5e.jpg,45.023421,7.669111
28179916347_a77f4c87c3.jpg,45.023421,7.669111
42998916462_80d94519e1.jpg,45.023421,7.669111
42330288574_983fe3c2c0.jpg,45.023421,7.669111
43048780731_972a54fb77.jpg,45.023421,7.669111
42330287954_55d5691d74.jpg,45.023421,7.669111
43048780081_02fd5bedb0.jpg,45.023421,7.669111
43048779821_aa1bed051f.jpg,45.023421,7.669111
28179904397_63e2d99395.jpg,45.023421,7.669111
43048779291_6ea629cc51.jpg,45.023421,7.669111
42998910262_5cfd20ca82.jpg,45.023421,7.669111
28179902947_4a4e03e809.jpg,45.023421,7.669111
28179902417_0fd5ddddea.jpg,45.023421,7.669111
41236356860_90944357b2.jpg,45.064912,7.695161
28172936927_4cc71533e3.jpg,45.085702,7.656065
42979102392_6cf0788f12.jpg,45.054194,7.642183
42939222462_113881312f.jpg,45.052377,7.650207
42076636235_090ec27435.jpg,45.072475,7.576425
42920729412_ae93d9fe0f.jpg,45.112534,7.657974
42969854301_0e5f1d5de0.jpg,45.078697,7.397041
42067424125_59a07d4474.jpg,45.070141,7.512942
42953929581_322962f94a.jpg,45.063147,7.677673
42232454364_581ab52288.jpg,45.024281,7.636195
29075468408_68d876c184.jpg,45.071641,7.685590
41132249490_9829b61662.jpg,45.118747,7.653675
41128334550_ebf66b249f.jpg,45.071452,7.707660
42033661825_e4d86e3a22.jpg,45.064423,7.696073
42924101341_e341bda2c5.jpg,45.060373,7.661322
42015440715_6001732606.jpg,45.062694,7.698627
41106461460_2220614b95.jpg,45.112542,7.656934
42185652104_a59e59970f.jpg,45.062694,7.698627
42855593492_846cf5130e.jpg,45.112496,7.657771
41093167180_c5e8bb1813.jpg,44.998363,7.677791
42185069314_13f24284c1.jpg,44.998363,7.677791
42184753784_1e94e5eb68.jpg,45.054194,7.642183
29030709148_eb59c2ce76.jpg,44.998363,7.677791
42854140702_89f89cb73d.jpg,45.072096,7.576296
41981325455_49803c8f9d.jpg,45.063238,7.677737
42876577401_3188e1f9e4.jpg,45.069095,7.693122
29000380188_d535117353.jpg,45.060972,7.698369
42872317871_4550221624.jpg,45.068898,7.685827
27993563337_3854f5a696.jpg,45.023421,7.669111
42144468784_83c09f63d9.jpg,45.023421,7.669111
42144467024_f903317bde.jpg,45.023421,7.669111
27993560507_01914f40d5.jpg,45.023421,7.669111
42144464764_7e76cd6e25.jpg,45.023421,7.669111
41051617910_2e6a2e263e.jpg,45.023421,7.669111
27993549167_59b9353e4e.jpg,45.023421,7.669111
27993548847_63b1b13954.jpg,45.023421,7.669111
41051616170_9139ae26a9.jpg,45.023421,7.669111
41051616020_f308a3e22b.jpg,45.023421,7.669111
41051615800_7977336b27.jpg,45.023421,7.669111
42862015151_e2c941a25f.jpg,45.023421,7.669111
28989627088_6fc3151490.jpg,45.023421,7.669111
42813868082_2e38dc697e.jpg,45.023421,7.669111
28989624988_d25919ace4.jpg,45.023421,7.669111
42862012231_bb1c7f9aa5.jpg,45.023421,7.669111
42862012361_32b7e65ce3.jpg,45.023421,7.669111
42862011471_5e0a07527b.jpg,45.023421,7.669111
42862011561_08f56cda40.jpg,45.023421,7.669111
42862011201_4413fe94b9.jpg,45.023421,7.669111
42862010911_a16fd55d9c.jpg,45.023421,7.669111
41051604430_a6964da4b3.jpg,45.023421,7.669111
41051603330_14b16371a9.jpg,45.023421,7.669111
42144378514_3b41c9ebc1.jpg,45.023421,7.669111
28989524948_edf75a49e7.jpg,45.023421,7.669111
28989524538_06d4a56b25.jpg,45.023421,7.669111
28989523148_faafe62e2c.jpg,45.023421,7.669111
41961371735_71478b83ac.jpg,45.023421,7.669111
41961369375_73638ccbc1.jpg,45.023421,7.669111
41961369215_b76bd1c29e.jpg,45.023421,7.669111
41961365045_55bb684c0c.jpg,45.023421,7.669111
42144366084_1f4afa93c5.jpg,45.023421,7.669111
42861892551_5baa149779.jpg,45.023421,7.669111
41961362305_b45179bf0d.jpg,45.023421,7.669111
27988929197_d7bab3e691.jpg,45.059972,7.697341
42857289421_c3cd86cd84.jpg,45.067754,8.097320
42850450941_76ea9e5a61.jpg,45.059972,7.697341
42840933991_1c69bae934.jpg,45.071368,7.684700
41027889290_ce08b023ab.jpg,45.059972,7.697341
41930274235_3a54ca26da.jpg,45.059972,7.697341
42100012914_9586733e5c.jpg,45.059972,7.697341
40999549920_d03855c283.jpg,45.059972,7.697341
42752478792_5b7ee93d80.jpg,45.067894,7.658652
27930932697_c3f2f7cbe2.jpg,45.071353,7.674776
27910376897_920035bc32.jpg,45.073770,7.668113
42053206314_5b838658f3.jpg,45.065099,7.679430
28896776398_99d1e9f04f.jpg,45.057031,7.667191
40950915470_c4edb8df92.jpg,45.060426,7.676889
42712075122_5d27e3a7ca.jpg,45.052392,7.650218
40880806140_ce91d2117c.jpg,45.069575,7.677597
42680365291_19f4fa3c54.jpg,45.069103,7.693122
27798609457_aaa781fce3.jpg,45.062548,7.698862
42617396652_83e5a6bac0.jpg,45.061199,7.695665
42652514811_40a68e5eb8.jpg,45.074323,7.677801
27780047897_308730c560.jpg,45.061199,7.695665
28765570488_6b276f0b8c.jpg,45.061199,7.695665
42587237672_03e75d1e24.jpg,45.032463,7.641082
28741080508_04d1ab156f.jpg,45.088308,7.391663
28725423408_1fb565c309.jpg,45.060426,7.676889
40788393230_08dd5714a7.jpg,45.059972,7.697341
42584953431_4d5713abaf.jpg,45.062870,7.575082
43073765111_58b1fe063d.jpg,45.104076,7.624264
29190928028_77df370f5a.jpg,45.312276,8.022530
42330844504_c07308af04.jpg,45.052491,7.651140
42146491795_6448a4487b.jpg,45.023421,7.669111
29096630368_ddc09b504a.jpg,45.070141,7.512942
42878691492_456bab79e2.jpg,45.071229,7.684829
42878688862_f5edb17ac8.jpg,45.071229,7.684829
28058411947_f794a82653.jpg,45.067342,7.682189
29054904628_83c2665092.jpg,45.067342,7.682189
41117341320_3fd9178d2e.jpg,45.067342,7.682189
42209059344_e8c162c8cb.jpg,45.067342,7.682189
27993561217_3bb78338e5.jpg,45.023421,7.669111
42779727431_f97d31a4c8.jpg,45.052975,7.685301
27901583887_d19a67cc8c.jpg,45.054105,7.686588
27888308177_709eb75c0a.jpg,45.051147,7.687642
42707759822_800df5ff37.jpg,45.052975,7.685301
42024807614_ffe67287da.jpg,45.052975,7.685301
42692215552_d7c20b73df.jpg,45.052975,7.685301
28868183998_d291472aee.jpg,45.052975,7.685301
27869496097_63c7489398.jpg,45.076551,7.638137
41838451175_e7fb2b870e.jpg,45.073247,7.576210
42671346682_460c0ae11d.jpg,45.064427,7.695729
28814509648_294a5f9370.jpg,45.061199,7.695665
28799721848_eaa271ca9a.jpg,45.061199,7.695665
27757263957_84f6196b72.jpg,45.061199,7.695665
27694585957_5a4b424266.jpg,45.092561,7.664815
44930081725_d3fe6cf321.jpg,45.087111,7.642014
31962575588_9127636256.jpg,45.035542,7.665174
45105513884_bf80f94a4e.jpg,45.065109,7.695751
44915454215_7a7ceb6365.jpg,45.066596,7.692403
31940400208_545b58a74e.jpg,45.018692,7.665238
31929186058_228caed1ef.jpg,45.112587,7.658017
31922640898_2fb31c1728.jpg,45.135348,7.624057
30848191567_6a14d3ce3a.jpg,45.068322,7.682533
44820140125_6b6a3d91f7.jpg,45.062972,7.699688
30780402377_bcd2593104.jpg,45.046366,7.683544
45611432582_f97a56bc56.jpg,45.073055,7.681666
45611417632_a6a385d5c0.jpg,45.073055,7.681111
31738909698_ae0da337ff.jpg,45.053211,7.686138
44879321444_c3376fbf1c.jpg,45.052499,7.685000
45581746651_f1e30a4fb3.jpg,45.049166,7.685277
45581746341_b5accd9403.jpg,45.049166,7.685555
45581745951_8108eb7030.jpg,45.048888,7.685000
44657765765_c004326ba2.jpg,45.049429,7.685258
44841775544_27a8d769c8.jpg,45.045241,7.683724
31690386968_eb3b1445f3.jpg,45.050555,7.684444
31690386618_32b1bfffc2.jpg,45.050277,7.684444
44633228355_855ff6c7da.jpg,45.056394,7.691516
31667501378_fe24d402b9.jpg,45.032463,7.641082
30591601817_10cfea01ab.jpg,45.071490,7.685662
45518363521_744a7f5eed.jpg,45.051847,7.601906
43695147110_20917bc09a.jpg,45.135177,7.624208
31621110928_1a89580c2a.jpg,45.362100,7.768385
45469023221_8f6114e842.jpg,45.062737,7.698529
30527016417_a341d1ba49.jpg,45.064155,7.696731
45400140802_c44788cc8f.jpg,45.091080,7.634010
44506647655_8d2d7cf797.jpg,45.032463,7.641082
45356903012_e72c1d7b88.jpg,45.069722,7.663055
45355692062_78f4c35310.jpg,45.091802,7.664765
30461941957_c7a60f5d36.jpg,45.090641,7.634954
30461790077_c04134edf3.jpg,45.032463,7.641082
44656784124_5894d3263b.jpg,45.049876,7.687339
45326153152_46e922fb0f.jpg,45.063786,7.681683
31495984278_27e09964f5.jpg,45.173781,8.101065
44643076504_79737d19ba.jpg,45.065246,7.686406
43547489120_d31c5e3059.jpg,45.070012,7.693380
31464149548_fd8bd0981b.jpg,45.032463,7.641082
31464149328_244e7ae3b7.jpg,45.032463,7.641082
43515950160_27c7ea52b6.jpg,45.072722,7.593022
31444431998_62d4cfff51.jpg,45.073232,7.519776
45264282172_8943b270a7.jpg,45.068265,7.682855
43495983210_88fecf0323.jpg,45.071247,7.684972
45258319852_dcd30cfb2d.jpg,45.075002,7.684561
45258318172_cb595cf23b.jpg,45.075181,7.684271
44383849955_a237b9017d.jpg,45.078763,7.683531
45275349491_5508f07b12.jpg,45.062563,7.678370
43459424040_49bc4e848b.jpg,45.090867,7.677155
45220447542_256173e377.jpg,45.032463,7.641082
44353151075_d528ab65e4.jpg,45.072278,7.685794
45253096661_2f9418c0be.jpg,45.031280,7.721275
30305156437_fe2dd9741a.jpg,45.022954,7.663156
44518837194_4f39b9c2d3.jpg,45.077777,7.685277
45239525861_05aebc0e93.jpg,45.082831,7.800421
44327809335_68323988da.jpg,45.063359,7.697660
30293243737_05d8cd0320.jpg,45.032463,7.641082
31353971418_2db4bb60f4.jpg,45.080733,7.799123
30284440687_1c31c820f6.jpg,45.068055,7.682500
30284440597_0acbb8f362.jpg,45.067222,7.682500
30813334547_64c9602350.jpg,45.093080,7.667083
31841602508_dbf580d50d.jpg,45.092701,7.666504
45712822681_a1cc88b8e2.jpg,45.011515,7.825001
30754080107_18ecf51120.jpg,45.071762,7.561790
31806787378_a65bb8d2a2.jpg,45.068572,7.686741
43831269740_cab5b852db.jpg,45.326507,7.889009
30484621027_9520af618a.jpg,45.199276,7.782161
45283982292_2aa5c2d633.jpg,45.072487,7.592883
45273634492_fe64d0f64c.jpg,45.173781,8.101065
44408274235_1868db1fc1.jpg,45.071921,7.684754
44383849685_3d3527499a.jpg,45.078763,7.683531
45220447752_32f662f7e2.jpg,45.032463,7.641082
30309714177_d73a43859c.jpg,45.072145,7.684732
42797570004_913e1c24c1.jpg,45.043333,7.650833
28580802517_8eb504035f.jpg,45.069682,7.699227
43450897771_f2953643f9.jpg,45.054194,7.642183
42731765264_e633f725ce.jpg,45.074452,7.668435
42619851424_a2494ea812.jpg,45.032463,7.641082
29449110268_0216884ca5.jpg,45.085732,8.137907
42525046334_6b910ec29c.jpg,45.083089,7.664498
28321669267_db4bf4764b.jpg,45.072247,7.576231
28321590887_707d7fc224.jpg,45.072225,7.684792
41343304430_a04434af89.jpg,45.059700,8.087666
43147839911_e117ccf453.jpg,45.062684,7.699034
42427133474_69fe3c17b7.jpg,45.059763,8.087680
41316192920_89ac2bb49f.jpg,45.135297,7.623975
43127562011_e7d764279d.jpg,45.135297,7.623975
42197069975_cc9c93f6c9.jpg,45.070372,7.634266
42192082825_95ac5916a9.jpg,45.073502,7.678954
28224489437_276d391c30.jpg,45.069224,7.693144
28220033967_5c15a14760.jpg,45.025684,7.657384
42370526424_83fd964755.jpg,45.052354,7.650175
43066454041_f5535d1f2b.jpg,45.072444,7.576296
42146491595_5ed7226078.jpg,45.023421,7.669111
41238611500_ac2c8257ed.jpg,45.023421,7.669111
41238610540_c78e238240.jpg,45.023421,7.669111
41238609190_0c8085eaed.jpg,45.023421,7.669111
28179918317_1695ae0144.jpg,45.023421,7.669111
28179918467_022db34609.jpg,45.023421,7.669111
42330307214_04f4433895.jpg,45.023421,7.669111
41238604760_4dc1a573ea.jpg,45.023421,7.669111
28179916637_580790d5a5.jpg,45.023421,7.669111
41238603100_d2abda0627.jpg,45.023421,7.669111
42998918592_2429e73bf3.jpg,45.023421,7.669111
43048779951_d9eeb69197.jpg,45.023421,7.669111
43048779671_05d7349734.jpg,45.023421,7.669111
28179904237_83c96edc49.jpg,45.023421,7.669111
28179902647_2ccd6ced1d.jpg,45.023421,7.669111
28179902487_3d83119015.jpg,45.023421,7.669111
41238573360_bd7986159e.jpg,45.023421,7.669111
42126882445_fba9cd10f1.jpg,45.054194,7.642183
42949614622_364110269d.jpg,45.070989,7.687007
28130377707_55836f1d08.jpg,45.092171,7.667341
42939195022_beeefb7652.jpg,45.060426,7.676889
42069299825_e04c1c9799.jpg,45.068994,7.693240
29096646468_f99b5150c9.jpg,45.070141,7.512942
42067427985_c3da28fbe1.jpg,45.070141,7.512942
42947561711_1be397dc27.jpg,45.066631,7.681684
41132250630_f8f87ebee2.jpg,45.118630,7.653822
42878518442_bdea19fc8d.jpg,45.071649,7.671858
42209020934_7baf0a5f33.jpg,45.071649,7.671858
42185094564_97c0fb63d8.jpg,44.998363,7.677791
42002558285_c4046663e3.jpg,44.998363,7.677791
41997804555_767ab88926.jpg,45.062694,7.698627
29002303808_4302d1b9ea.jpg,45.065099,7.679430
42797569834_d95eb28196.jpg,45.043333,7.650833
42775803774_1723c2355d.jpg,45.071982,7.707370
43441627202_a3451eb589.jpg,45.067701,7.691719
29612133698_4d08ff7caf.jpg,45.035193,7.677597
43464236281_96c8a900d3.jpg,45.091555,7.665806
43451498031_2d20004368.jpg,45.092277,7.667512
28564938347_599ce52993.jpg,45.092231,7.666246
42735035674_9c17ab75af.jpg,45.060426,7.676889
29572531698_1e12fdcbf8.jpg,45.061351,7.677834
43393135472_827c3bc875.jpg,45.076051,7.686460
43391852772_06db2dfba8.jpg,45.070588,7.688015
41599460810_25fc40b9ef.jpg,45.069800,7.688896
28522097397_41397cd7d0.jpg,45.027329,7.657599
42668237034_c2ffe89804.jpg,45.032463,7.641082
43319315242_cf5a5f7643.jpg,45.073429,7.689614
41558559600_f98db6f724.jpg,45.062677,7.621035
43325968891_210aaebbcd.jpg,45.073050,7.667394
43269956922_66476abc7c.jpg,45.092159,7.667918
42599893394_2c8c95f21f.jpg,45.092159,7.667918
28437835017_7a2aa716ef.jpg,45.076431,7.678992
42398219175_85aba39c83.jpg,45.017592,7.752678
42581558074_a0e0d0d796.jpg,45.064018,7.699635
43297340421_f963310a20.jpg,45.085732,8.137907
42563914564_bb2dd42736.jpg,45.085732,8.137907
41472359700_bf08e85dbb.jpg,45.085732,8.137907
42378318405_26130ced1d.jpg,45.085732,8.137907
43282119901_56a1a70b92.jpg,45.085732,8.137907
28385546937_374296db0d.jpg,45.092345,7.665794
43230566401_6a0b2b17d5.jpg,44.879988,7.534577
42501084064_02cd869f5e.jpg,45.074460,7.668403
28326959447_9b6c3da56a.jpg,45.066670,7.689034
43134245162_6bf6788062.jpg,45.092141,7.667899
43131011592_1a40160c54.jpg,45.052491,7.651140
41367978070_c26b2e2358.jpg,45.071717,7.689260
43124156632_4d297ec0ce.jpg,45.071375,7.655217
28287173737_fb7defb845.jpg,45.072861,7.670120
29261666918_5040b453f4.jpg,45.072550,7.682887
43075569302_e4e6dc0d6c.jpg,45.091974,7.664165
41272008550_9bc9d8c06d.jpg,44.995783,7.604974
42160748065_2cbd1261e6.jpg,45.066686,7.689077
41238610220_ec10b89f42.jpg,45.023421,7.669111
42998917812_7ec91d29d1.jpg,45.023421,7.669111
42998916652_740a165540.jpg,45.023421,7.669111
42026058535_3042e67bd1.jpg,45.072176,7.687972
28058403307_424519b43c.jpg,45.067342,7.682189
42209148174_203e1a6135.jpg,45.067342,7.682189
41117355860_7c9fcb7847.jpg,45.067342,7.682189
42209077324_a523dff767.jpg,45.067342,7.682189
29054788928_58903a222e.jpg,45.067342,7.682189
29004273288_fda24bd78c.jpg,45.092252,7.665179
40299461890_a199d6dd85.jpg,45.060085,7.697191
41375312834_d445fe8f12.jpg,45.080787,7.767591
41178622805_ed320030cc.jpg,45.070550,7.634347
42066224791_1f0410e173.jpg,45.060426,7.676889
42021355562_823fc05434.jpg,45.025684,7.657384
40258382770_9cd4b8f65d.jpg,45.025684,7.657384
41113306145_b2e38d7fac.jpg,45.076325,7.670527
28133162528_fd5442b66e.jpg,45.069512,7.686470
28132729278_023c02ddee.jpg,45.135630,7.621980
41251674764_1b0e55478d.jpg,45.073429,7.689614
41902743622_a5faaecd57.jpg,45.137696,7.622601
28065361478_108cc18b18.jpg,45.052452,7.650197
41839521902_a446d7c51d.jpg,45.029043,7.663371
41872375271_0386ff00b9.jpg,45.068913,7.685762
40970095455_860afd5e93.jpg,45.032463,7.641082
40048524900_c08a441a21.jpg,45.053288,7.645003
41855253861_423b65b24d.jpg,45.025684,7.657384
41127764134_8dcfa5eac4.jpg,45.063670,7.697167
41844537511_531fd6754f.jpg,45.028679,7.663543
26972841897_f3a8e020d2.jpg,45.073528,7.683616
27965289208_5709b643b0.jpg,45.134374,7.628953
40026466320_e753dce5cb.jpg,45.063800,7.696534
27961003898_508440810b.jpg,45.025684,7.657384
27955597578_873128950d.jpg,45.017918,7.619748
41779680642_44c78b1272.jpg,45.064230,7.696266
26953921727_08f0d9ebe9.jpg,45.064230,7.696266
41779446092_c53eeea021.jpg,45.064230,7.696266
40922814495_c5500f75e3.jpg,45.070959,7.684185
41809471561_3cd21faab1.jpg,45.070989,7.685022
26937555137_33b7cb2b4e.jpg,45.080808,7.767248
39979224960_2d35068f2d.jpg,45.060869,7.697360
39972835220_cabe881149.jpg,45.031310,7.664680
41713385902_7e69686b04.jpg,45.072126,7.555718
40841291825_3234463f25.jpg,45.072111,7.684732
41675785972_8709f67a38.jpg,45.071050,7.694656
41714833161_80e0f3ee85.jpg,45.052423,7.674915
40812969945_b2556bdfd8.jpg,45.072149,7.684754
39896215790_bfd1413834.jpg,45.073088,7.681245
40984410064_0d80a8a943.jpg,45.064338,7.696877
41654752212_9235ff0c04.jpg,45.290912,7.928556
41630314702_84520d52ff.jpg,45.034381,7.666654
27800558508_31b13432b1.jpg,45.066617,7.681535
41611800342_30573b84b8.jpg,45.068701,7.682790
26772869187_879f90fb25.jpg,45.070397,7.634247
40740702125_6a4c37891d.jpg,45.081871,7.581242
41588521962_a1cb17401d.jpg,45.041606,7.661322
40733134065_96f6c2c156.jpg,45.068428,7.607914
40913008124_5e9cdbffa9.jpg,45.063003,7.698712
40909792284_891133849a.jpg,45.041841,7.674636
40906556684_d8dd1eb252.jpg,45.032463,7.641082
40715261485_9beafd65e9.jpg,45.067565,7.852681
27728287768_199684ae7f.jpg,45.027602,7.659745
41556079322_7da0b9d628.jpg,45.028156,7.660131
40884308734_fc908622c9.jpg,45.070414,7.685515
41588159511_cff492bf45.jpg,45.071603,7.686663
40686930355_69703dc00f.jpg,45.128118,7.632585
41538100462_491541e0ca.jpg,45.140111,7.760102
41520222152_c8a93a1811.jpg,45.069216,7.685097
39725940240_813eabca82.jpg,45.029134,7.663500
41486509192_821d6636af.jpg,45.077263,7.569429
39716969940_7b8da3f891.jpg,45.029574,7.663135
39705295900_dc025a0871.jpg,45.029619,7.663167
41464209542_f56fe1f9d6.jpg,45.029702,7.663521
39683144310_8844d34b30.jpg,45.029862,7.663221
40583370695_c096ba0e48.jpg,45.069033,7.693211
39646795450_7a66d33bee.jpg,45.091557,7.664594
40561545005_1afb45cdb6.jpg,45.032463,7.641082
41439812061_e80b667356.jpg,45.017493,7.620123
40722733924_ce0d70a419.jpg,45.068997,7.682962
39623942160_21fdd76b63.jpg,45.032463,7.641082
41390565662_da95ca338b.jpg,45.032463,7.641082
41390565412_58d4276486.jpg,45.032463,7.641082
26558805077_a34beaf625.jpg,44.845453,7.718678
39620593250_5dece6c580.jpg,44.845453,7.718678
39602909780_79b7fb91eb.jpg,45.067800,7.697144
39597932970_d09b305b78.jpg,45.027663,7.659616
39595632620_bbcfe5741a.jpg,45.032463,7.641082
39595632410_627a12ea73.jpg,45.032463,7.641082
40676983844_0f516e7f37.jpg,45.070561,7.634322
39581358840_205ca8f84f.jpg,45.081200,7.682629
41390402571_4835de54b9.jpg,45.063207,7.688165
39578311070_c0113a7085.jpg,45.028148,7.660067
40673358294_550e4276f1.jpg,45.028148,7.660088
39576195950_a2a07d2741.jpg,45.028103,7.660024
41373629161_56b733611d.jpg,45.064670,7.697510
28230984948_8def90e7cf.jpg,45.071687,7.688994
42053472082_9eb0c7bac1.jpg,45.059763,8.087680
42089911431_c31edba0c7.jpg,45.068633,7.667191
40279006500_1da96b0694.jpg,45.104122,7.624350
41366238364_ac2e2c900a.jpg,45.071687,7.688994
42079517531_fc91219f7a.jpg,45.071687,7.688994
28202961788_c264a55e97.jpg,45.075715,7.648192
41354887434_ee0599c548.jpg,45.071747,7.685387
40258557150_1349349ff1.jpg,45.025684,7.657384
42055341361_76cc5a978e.jpg,45.069749,7.510465
41324190894_9a8dfb7b87.jpg,45.069749,7.510465
41981832832_743bf2a73f.jpg,45.071758,7.666006
41121289985_4f78c1cf96.jpg,45.067466,7.682166
28142674778_d578d99b18.jpg,45.071436,7.692382
40207771730_35a8e1735b.jpg,45.118508,7.768503
27134127697_69dd35cf40.jpg,45.016439,7.823542
27131631267_d4d7c28bc8.jpg,45.064518,7.697296
41276627864_0cbb2a2732.jpg,45.064518,7.697296
28120802498_f809352e01.jpg,45.071126,7.685010
41976712381_20308f9ecc.jpg,45.069529,7.510131
41254624174_7548470db9.jpg,45.057654,7.710975
41916796762_81b0faba80.jpg,45.032463,7.641082
40129643220_0136204046.jpg,45.025684,7.657384
41892194762_df2ff12de6.jpg,45.025684,7.657384
41923783171_c32d17ca46.jpg,45.083990,7.715985
40078688830_6ce9564e87.jpg,45.068913,7.685762
40983698315_03a66cfb54.jpg,45.115305,7.765711
27005424407_36215eec58.jpg,45.072308,7.682576
27005206607_65911ef24a.jpg,45.018138,7.619769
41872374971_5443629d19.jpg,45.068913,7.685762
41829229022_8f395885f8.jpg,45.077854,7.769179
41827463932_2ef54be261.jpg,45.032463,7.641082
41869201111_d71b78bdf3.jpg,45.059308,8.088397
41869199581_719361873e.jpg,45.059308,8.088397
26994791557_46aa76bbb3.jpg,45.076626,7.683616
41138367204_7f810ecb42.jpg,45.025684,7.657384
40048302300_bc31802e1e.jpg,45.025684,7.657384
41137930144_be7e4a3b43.jpg,45.025684,7.657384
26984150417_e6ccbed503.jpg,45.059708,8.087669
41807536552_4af1561cba.jpg,45.067425,7.682411
26980261387_870234477d.jpg,45.290912,7.928556
41844577211_cb0b9e4491.jpg,45.070777,7.683928
41844568891_b9a9d068a8.jpg,45.071391,7.684711
41801944762_fdbb8d568e.jpg,45.063018,7.678574
41118338874_0f94a2fca7.jpg,45.071253,7.684978
41114734664_0f5e75bcba.jpg,45.067443,7.702875
39998704160_416a4bd1d5.jpg,45.080930,7.767741
40860698755_8dc52c9ee0.jpg,45.065061,7.694710
40845471345_123c93904b.jpg,45.066799,7.701094
41020148274_01ab60bedb.jpg,44.862606,7.900135
41693311832_804347bd41.jpg,45.068580,7.686556
40833276185_cc853c280d.jpg,45.046965,7.683284
40823962195_38f1e574be.jpg,45.069095,7.692060
41680680952_54cbaefcee.jpg,45.064641,7.697607
39908542060_2d081d5956.jpg,45.069641,7.686567
41663887392_1252e70954.jpg,45.050147,7.394169
41652627201_7244314c03.jpg,45.064338,7.696877
39697327570_dc58522eb2.jpg,45.067988,7.696963
40561545265_e26a62b8f0.jpg,45.032463,7.641082
41218261984_439d33b944.jpg,45.060426,7.676889
27066850787_4a02bac288.jpg,45.051783,7.653952
41168869514_4d84490ed0.jpg,45.072187,7.684764
26987186947_0cc73b819c.jpg,45.025684,7.657384
40048090420_e1dd3a20f0.jpg,45.025684,7.657384
27965369828_e7d17965ce.jpg,45.135396,7.625488
27963432708_969819e859.jpg,45.061896,7.694098
41829352171_6d6e84a8b0.jpg,45.067580,7.682340
41069183144_f8d342e6f7.jpg,45.060869,7.697360
39952003310_130baa4a3c.jpg,45.065061,7.694710
40860575065_c2316b6af4.jpg,45.057654,7.710975
41759710741_6ec244ab95.jpg,45.064852,7.694453
39926082570_14b9346005.jpg,45.068580,7.686556
40834538385_00a44366ee.jpg,45.072384,7.576360
27833689888_57fbe06996.jpg,45.064673,7.695729
40787216385_b91e36fa68.jpg,45.066966,7.681910
39822226890_64e8c2a749.jpg,45.280080,8.076324
40885619074_cc4344035c.jpg,45.028171,7.660131
27717889548_1d475836de.jpg,45.128118,7.632585
40876292984_5e39826b62.jpg,45.144818,7.759287
40864629494_0ee63ac6f6.jpg,45.027875,7.659702
41568044501_7798a459b3.jpg,45.028846,7.663908
41497580182_732f2e87c5.jpg,45.042411,7.673663
41493579772_f99f0aa7a4.jpg,45.029255,7.664079
27657032948_b971b1a7c8.jpg,45.077271,7.569580
40813876694_c86a349001.jpg,45.067981,7.681878
41519432221_577732881d.jpg,45.305100,7.939424
41476150111_e6d570dda7.jpg,45.076513,7.680161
41476012691_5fb3708d95.jpg,45.076513,7.680161
41455888331_6e3d8ecea0.jpg,45.029278,7.664723
27579720618_57ec1dfeef.jpg,45.032463,7.641082
27540654698_ce639caab6.jpg,45.069991,7.698241
27520568278_51d51240dc.jpg,45.063207,7.688069
27515446448_03614f35b6.jpg,45.072793,7.682683
26502524167_0ba50b5663.jpg,45.064003,7.696866
40653604044_bc64b5c9db.jpg,45.136259,7.626078
27492657938_b44502bd64.jpg,45.072793,7.682683
27487101028_300b9bebe0.jpg,45.067588,7.681975
27479224348_2a41918cc7.jpg,45.060100,7.698830
41304299902_5d5f32d249.jpg,45.092573,7.663543
40441884575_8a67449598.jpg,44.972122,8.096998
27465946108_baa881e0cc.jpg,44.972122,8.096998
41294801512_1d74d5cab4.jpg,44.972122,8.096998
41337341361_3c9a1b3444.jpg,45.028103,7.660281
41281803802_5a4569d1ed.jpg,45.135449,7.624018
40609727544_70e1de91c8.jpg,45.091240,7.665796
40609727034_8c88c7e15b.jpg,45.091240,7.665796
39513335080_df8a2e6987.jpg,45.066922,7.682250
40599693224_001c3df108.jpg,45.092164,7.664079
27420279158_f5697cf40a.jpg,45.068730,7.682986
41230088032_01e9a0906d.jpg,45.092164,7.664079
41252445371_0eee62f9db.jpg,45.032227,7.657991
27353312088_dd80f0e48f.jpg,44.862911,7.899985
41215576741_8d895275b1.jpg,45.059713,8.087563
41913363342_6948fb1e49.jpg,45.046313,7.696931
40137162800_6a702e360c.jpg,45.067959,7.681953
41936889191_be80c9337d.jpg,45.060426,7.676889
40118584850_41c2ff0434.jpg,45.081157,7.449653
41164621244_4e61c7a532.jpg,45.063404,7.695965
40971746005_11e5e409eb.jpg,45.068443,7.682340
41153401894_4e2c23a2d0.jpg,45.073149,7.681277
27986839078_854c0f41a9.jpg,45.025684,7.657384
40022885740_1f9fcf109f.jpg,45.069338,7.684689
26943427367_b131352bb0.jpg,45.071897,7.685289
41696705602_ac8d7455d0.jpg,44.862606,7.900135
40838159355_713f0bea9c.jpg,44.862378,7.899985
27867206578_a7c65f5d84.jpg,44.862378,7.899985
26656695807_416ace86be.jpg,45.029361,7.663457
40741065304_9f11fa03e3.jpg,45.072122,7.686483
27545621258_09de8cd05a.jpg,45.092982,7.664337
41369116832_ac244fa53a.jpg,45.067852,7.697208
27494742638_5ea0871889.jpg,45.008035,7.824057
40579137994_b0693c862e.jpg,45.092164,7.664079
41672178892_fb91b3c6e4.jpg,45.134662,7.626882
41361923581_acfa4f08ac.jpg,45.028057,7.659981
40408836495_4b9634967a.jpg,45.092322,7.663553
39405206680_9677fb83ca.jpg,45.059713,8.087563
39405205530_8b4b14258b.jpg,45.059713,8.087563
39394872650_f57ec7eaae.jpg,45.059713,8.087563
26331199787_7dfd59d0b5.jpg,45.028921,7.663714
41193411181_3a9bbe901b.jpg,45.034388,7.666590
27308232138_ae894aa127.jpg,44.845453,7.718678
39371135680_39afc7b9f3.jpg,45.049080,7.685108
27305237378_623f6479c1.jpg,45.066519,7.681621
39363863090_8d8715ecd6.jpg,45.026336,7.657696
26292886947_8775783eb7.jpg,45.312065,7.879911
40263744315_3be254e378.jpg,45.068989,7.682812
40236367235_8bee4b20d1.jpg,45.062694,7.698627
40228940475_f4f64002f5.jpg,45.062694,7.698627
26242979527_97da709e14.jpg,45.071065,7.676364
27239473028_6b531523dc.jpg,45.068512,7.689260
41067478222_d58c46cdff.jpg,45.027338,7.660330
27235321718_f65ab6408e.jpg,45.026336,7.657696
26209555357_9681c07daf.jpg,45.064427,7.695729
39268051060_e6baf76128.jpg,45.071230,7.690539
41072454061_93e1d364b1.jpg,45.088141,8.037091
41029497792_598e74d474.jpg,45.330460,7.882658
40359192624_944453a8dd.jpg,45.073429,7.689614
27193142698_b966b0079a.jpg,45.080748,7.766883
26183252347_c33d2af185.jpg,45.071230,7.690539
41011902992_b0f9ff5aaf.jpg,45.357332,7.777783
26177370057_999107494d.jpg,45.088141,8.037091
41048095161_0ea03f623f.jpg,45.088141,8.037091
40999917272_9358d7c6e7.jpg,45.072403,7.592872
26170972757_131c9ed21a.jpg,45.072403,7.592872
39233058420_0d9d06c7be.jpg,45.072403,7.592872
26170965217_45705f018f.jpg,45.072403,7.592872
26170959017_5291595e28.jpg,45.072403,7.592872
26170947617_0ce36a893a.jpg,45.072403,7.592872
40999896492_c8fa65b100.jpg,45.072403,7.592872
40333108644_e9de63c496.jpg,45.072403,7.592872
27867174008_786144fd38.jpg,44.862378,7.899985
40815400865_3b5b4cf15f.jpg,45.200107,7.651612
26690025357_9a4cfc6616.jpg,45.057834,7.708818
39650626380_a8d9f3a200.jpg,45.075658,7.669529
40470942245_ccb453ddf1.jpg,45.008035,7.824057
27296897198_174c57fcf8.jpg,45.069535,7.692768
41041882721_c13afd7541.jpg,45.072403,7.592872
41041881301_3feda8e723.jpg,45.072403,7.592872
40333177554_5fd0a6c5e0.jpg,45.072403,7.592872
41041863471_92d50bd928.jpg,45.072403,7.592872
26170979987_6ae45acbe6.jpg,45.072403,7.592872
40333134594_1dd89e2091.jpg,45.072403,7.592872
38602043525_6d7578daf8.jpg,45.067580,7.691613
38789578784_d5d48982c2.jpg,45.062508,7.699080
24626045307_81eeae0bf3.jpg,45.251666,7.568333
38745379964_7498eb6554.jpg,45.063888,7.696388
24630954427_af650f790d.jpg,45.068133,7.683144
38744505554_92febc7022.jpg,45.044633,7.467300
39435710691_262ace3f17.jpg,45.066125,7.654091
40745076952_3878bff398.jpg,45.039870,7.686395
26914311988_d9cd5f0cb0.jpg,45.330460,7.882658
38897272500_15027b2047.jpg,45.100653,7.755661
40691179241_e59b108cc0.jpg,45.052491,7.651140
25818379507_e239741013.jpg,45.332843,7.882829
26806694278_382fed2e37.jpg,45.060366,7.697554
39945719404_566a456ca1.jpg,45.051847,7.601906
25784740907_f3d00ea436.jpg,45.051847,7.601906
40613533602_a9d61ef290.jpg,45.051847,7.601906
26784073168_ebc7e3bafd.jpg,45.051847,7.601906
40655139601_49145cfaca.jpg,45.051847,7.601906
39747922845_5f380110b7.jpg,45.332448,7.878087
39895796454_9e65a51cf6.jpg,45.071125,7.684980
26723114898_ec78f5dc60.jpg,45.017683,7.620005
40590631321_724ecc53b7.jpg,45.069838,7.677694
38765535610_e299fd2f0c.jpg,45.203963,7.649724
40574453301_134fa309a5.jpg,45.070899,7.686030
39860927844_74bd13df1f.jpg,44.853549,7.908439
26684652778_1bcfd23699.jpg,45.329834,7.939327
39842106964_29fc15659b.jpg,45.110270,7.641130
39647585455_571f8aa63b.jpg,45.060426,7.676889
39823225274_f994f32de6.jpg,45.332923,7.882411
39625581755_a9ddc09b97.jpg,45.051847,7.601906
39809176424_476639a775.jpg,45.330460,7.882658
26645936198_772c27d92b.jpg,45.312593,7.914555
38703934780_f9dc1923d9.jpg,45.204840,7.649745
40453015571_3608c32c06.jpg,45.067172,7.691719
39708873964_69d8260320.jpg,45.199986,7.651859
40371791542_f55b756f43.jpg,45.070850,7.688147
25532857587_a2fea4cab3.jpg,45.332602,7.883441
40379800641_3a18d9dc3b.jpg,45.026440,7.656766
39479930495_276d19444b.jpg,45.057501,7.693573
40322368512_a043198f28.jpg,45.332722,7.880630
39444394855_315ffa9e9a.jpg,45.070538,7.634349
40341497691_6851840152.jpg,45.060215,7.697493
38521623350_01b4177b9b.jpg,45.054242,7.689481
26430663198_4b7e18aabd.jpg,45.332843,7.882829
38474511820_8b320fb94d.jpg,45.079914,7.581446
39383906485_7171ec0285.jpg,45.328518,7.882272
40749799792_db2712b97b.jpg,45.039870,7.686395
39891054325_e60d695512.jpg,45.189684,7.886660
40074537704_438147598f.jpg,45.039870,7.686395
25898217347_e0c204913c.jpg,45.068944,7.692725
39869561545_a9d363a50c.jpg,45.059972,7.697341
26884607328_32eea3dd69.jpg,45.059972,7.697341
40044043464_d16fe1e7df.jpg,45.054291,7.689213
40749027371_c0ac5d4840.jpg,45.017546,7.620348
26860275318_fd8e4c91cd.jpg,45.076551,7.638137
39832160515_0214ef55a8.jpg,45.076551,7.638137
38913739150_107643211d.jpg,45.062830,7.679455
25852345297_fdd2ae2493.jpg,45.076551,7.638137
39823555465_6094449b19.jpg,45.043372,7.683799
38905034840_016febb571.jpg,45.047888,7.641900
39815487405_1dca23c24b.jpg,45.076551,7.638137
39998526714_224c4a580c.jpg,45.076551,7.638137
40706196761_fab5c5b477.jpg,45.076551,7.638137
40697003461_e81445fbef.jpg,45.076551,7.638137
38881603250_b26f754fb3.jpg,45.076551,7.638137
40646632932_67773c47d0.jpg,45.073482,7.694839
40645394532_96eaf94cf9.jpg,45.076551,7.638137
25808626767_77b1fa67cd.jpg,45.076551,7.638137
40637460052_69f52150f1.jpg,45.070899,7.686030
40637233952_4e86cc7962.jpg,45.025684,7.657384
39966511744_5f18977368.jpg,45.076551,7.638137
40630547682_c4082ae08a.jpg,45.076551,7.638137
39774459725_86f3b34e9e.jpg,45.076551,7.638137
39950910924_8ae4928cfe.jpg,45.058168,7.692843
39759746415_e1829c6550.jpg,45.057243,7.609738
38844692790_7e61c3992b.jpg,45.076551,7.638137
38840648900_479390f48b.jpg,45.076551,7.638137
25767231027_6278bb7447.jpg,45.068599,7.663380
40637195171_350273122b.jpg,45.076551,7.638137
38817776110_9ccc78d587.jpg,45.092288,7.347591
38806950530_66344a3080.jpg,45.040704,7.787557
26743363298_33bd702f86.jpg,45.072217,7.576274
39903616694_cee36a6553.jpg,45.069369,7.685361
39903613864_f2a9540526.jpg,45.071300,7.684755
40571768742_6eb739af17.jpg,45.071125,7.684980
40567698752_efbfc88b9c.jpg,45.072158,7.672341
39703710065_1f57db25f1.jpg,45.075094,7.683844
40598410771_bf10346f5a.jpg,45.017607,7.619919
25724802067_b4e65efbe5.jpg,45.072278,7.576189
39699650845_a6549bc185.jpg,45.017698,7.620059
39698730445_0be0b83b10.jpg,45.068186,7.682533
25720933587_3db6618ec8.jpg,45.075094,7.683844
40587628721_dd4b55a98e.jpg,45.075094,7.683844
40536830332_8ee2a628be.jpg,45.063697,7.696141
40533196102_4f8272d361.jpg,45.205036,7.647192
25705148877_d4922bf78f.jpg,45.186437,7.648587
39679318125_2da359d921.jpg,45.075094,7.683844
25701114977_bb9df77d27.jpg,45.075094,7.683844
39858904094_8938093268.jpg,45.075094,7.683844
40526414672_43b6e262f2.jpg,45.061358,7.677639
40517732462_9fb077bc0b.jpg,45.071125,7.684980
39658275235_cf5b83d74f.jpg,45.068224,7.676568
26681419918_8c308de69d.jpg,45.071125,7.684980
40544571421_87973c36db.jpg,45.067981,7.632097
39647649005_192213f242.jpg,45.080778,7.767269
38722699060_e381ca8f68.jpg,45.080778,7.767269
40532537791_54c1148c3a.jpg,45.122263,7.530441
38710482420_961e809e07.jpg,45.080778,7.767269
40517083991_4e745b3650.jpg,45.080778,7.767269
39619472585_0f5a62d0fa.jpg,45.080778,7.767269
40471552542_d92ba2566b.jpg,45.199835,7.646881
40471547912_5e2b9f8405.jpg,45.201030,7.646913
39606207885_5e35da6f0a.jpg,45.080778,7.767269
40497151971_5310f82ba9.jpg,45.080778,7.767269
39598886565_ed4fcf5910.jpg,45.080778,7.767269
40484086901_3797d7de30.jpg,45.080778,7.767269
40433699692_fba2c3c369.jpg,45.080778,7.767269
26605956928_aa2c9b4f64.jpg,45.114919,7.766711
40429374012_401b7b51e7.jpg,45.080778,7.767269
39762094094_d89fb2658c.jpg,45.070899,7.686030
39754316304_ed5f6e5abf.jpg,45.080778,7.767269
40413261742_10f48bd68c.jpg,45.080778,7.767269
39742035484_1e602aa39f.jpg,45.080778,7.767269
40401499292_84826e66bc.jpg,45.081678,7.734881
38634506780_984c2fa229.jpg,45.291038,7.647300
40396270742_c0a9f1bd8e.jpg,45.081678,7.734881
40437352091_63abc58aba.jpg,45.059090,7.705205
39538515375_d1d01f0f58.jpg,45.068333,7.692391
25552612087_c95ec5d6bc.jpg,45.059090,7.705205
39710839404_f572d6047f.jpg,45.041530,7.656226
38608899530_2bfe384ea9.jpg,45.199933,7.651870
40418659581_8949d2d1af.jpg,45.058653,7.707898
25546408947_710d9f6d7a.jpg,45.052491,7.651140
39706312634_7b1227f8d2.jpg,45.068599,7.663380
39502302755_bf4b58a0bf.jpg,45.205187,7.649745
38588436020_1554de7f66.jpg,45.204840,7.649745
40397025391_120ded3d64.jpg,45.070899,7.686030
25525008177_ee97b25ce3.jpg,45.068599,7.663380
39500129925_2757a4e051.jpg,45.058653,7.707898
40380162131_857420079b.jpg,45.068599,7.663380
38566899800_926d5eceab.jpg,45.058653,7.707898
40319589442_1ee033f7b0.jpg,45.058653,7.707898
40342205861_698d9104da.jpg,45.080884,7.766969
39442179585_4e3c1c3c0f.jpg,45.058653,7.707898
25446923437_1fe6e12f3b.jpg,45.068599,7.663380
38508880960_f52a65db43.jpg,45.068599,7.663380
40251925082_8c991ce000.jpg,45.068599,7.663380
25424856417_7471b39850.jpg,45.064533,7.695912
39370033475_08e10498f0.jpg,45.051783,7.653952
40267311221_4f9240104e.jpg,45.054158,7.641967
38452298950_ac9eb429aa.jpg,45.331746,7.875995
39332440795_ef27f0dd3d.jpg,45.060778,7.619962
39489921284_7623667c33.jpg,45.042529,7.651344
40118342462_759eb300cb.jpg,45.092564,7.744979
39235212325_d0134f6fdd.jpg,45.332448,7.878087
25262465287_9d6d0a3fe9.jpg,45.066473,7.706630
28350344629_a6f46c61e8.jpg,45.071230,7.690539
40087264682_6a541c15ba.jpg,45.067822,7.682597
40098594931_e1224c89fe.jpg,45.200092,7.651720
39373911314_03f7d6c871.jpg,45.067822,7.682597
26183488358_d0d4b5c179.jpg,45.060426,7.676889
39916316112_4dcd19256c.jpg,45.057925,7.692366
26041936568_86405eed41.jpg,45.088908,7.639719
25026787097_0a5b6297d8.jpg,45.032463,7.641082
39874602051_d07470b2a1.jpg,45.068055,7.682777
25990071698_9848d9e7c3.jpg,45.025684,7.657384
24992282597_55c74f9573.jpg,45.057243,7.609738
39149316384_b938949a49.jpg,45.075960,8.129303
38958881785_d7592ed3d6.jpg,45.111626,7.641334
25964400508_48c8c15319.jpg,45.076225,7.669830
39837486311_ec685d6b09.jpg,45.075748,7.672276
25950623288_2aae840aca.jpg,45.032463,7.641082
28044512479_d3df13b030.jpg,45.064200,7.679293
38901792835_5d314408ef.jpg,45.379371,7.815506
25923614598_0b06660e79.jpg,45.032463,7.641082
38878342795_b383676382.jpg,45.077051,7.698025
38878337455_59e02eb528.jpg,45.076225,7.696748
39064970064_d435bc51dd.jpg,45.097995,7.342514
25856587978_b0c10fdce8.jpg,45.078157,7.684335
39693979762_d12b764331.jpg,45.052468,7.650175
39720910821_bd8ee54807.jpg,45.071111,7.684858
27941967479_112968b587.jpg,45.066641,7.681636
39707706371_ac61d30b2d.jpg,45.288894,7.672769
25817455198_cc709e19eb.jpg,45.040704,7.787590
27908403479_e2fd955eee.jpg,45.051113,7.686238
39370031225_2444dfc7d7.jpg,45.054158,7.641967
40190924532_05c084e001.jpg,45.042049,7.352352
28444102189_3609194dfb.jpg,45.183851,7.651870
28439727189_3f4785e856.jpg,45.017777,7.748888
40202976891_fd1c08e16e.jpg,45.184282,7.650647
26328889298_8a036ddd1f.jpg,45.042529,7.651344
28403909679_9fe0ec50d8.jpg,44.970458,7.718413
26302701268_145e5d4836.jpg,45.065262,7.695328
39458298994_6a79be6f69.jpg,45.074950,7.513730
25274517437_5035d09935.jpg,45.067569,7.707569
26272654428_ae4b440466.jpg,45.067686,7.708019
39425971094_0ee297c22e.jpg,45.052059,7.685194
40103127942_a66ee011d2.jpg,45.076937,7.638480
28350824899_9d6dc4c4c0.jpg,45.054158,7.641967
28341707219_1f4e8d7f8b.jpg,45.071230,7.690539
40118684481_979b21922f.jpg,45.068599,7.663380
25245099987_783b349cdd.jpg,45.073429,7.689614
39402345734_d9cee290a9.jpg,45.375920,7.801365
40081310212_58fbfa10fa.jpg,45.052301,7.685129
26230300698_997dc802a9.jpg,45.169227,7.580394
28323643579_69c26dfbe1.jpg,45.169219,7.580405
39200849595_b0e133004e.jpg,45.266505,7.480101
25226994617_d4d97c86f3.jpg,45.052301,7.685129
39195826555_bc88150029.jpg,45.266505,7.480101
28259226279_eb69f83d50.jpg,45.131472,7.829894
25129799817_f4d8297972.jpg,44.913109,7.845085
26117860238_d4e1f72c38.jpg,44.997286,7.606444
39092174295_4c40d7a821.jpg,44.996292,7.605414
26089820458_55d8be46bf.jpg,45.153656,7.456583
39252186694_7ba5c7096d.jpg,45.153436,7.457013
39051198695_6be86e0cd2.jpg,45.380004,7.816557
39050921955_0a4a021f43.jpg,45.320771,7.898654
26076051758_efc64e695b.jpg,45.082036,7.660506
39931393551_74ac0782cd.jpg,45.052491,7.651140
39030131175_b4a9a293ef.jpg,45.064724,7.669427
39917613891_2b44c39261.jpg,45.069010,7.693160
26042728168_5aabfacf1d.jpg,45.049633,7.680280
26041941078_2797fc10bb.jpg,45.088719,7.638450
25038420817_c32b15148d.jpg,45.067919,7.669025
25026787547_dd51a562c2.jpg,45.032463,7.641082
39865631002_d4b7e0e2ab.jpg,45.059532,7.697639
39861373452_691513da18.jpg,45.076066,8.128359
25022248277_371b53ac1a.jpg,45.076111,8.128831
39178850694_2a3d7bacb3.jpg,45.032463,7.641082
39856584882_76869d249a.jpg,45.068474,7.683091
39847716872_203afbde8b.jpg,45.032463,7.641082
25990021948_695d0254e4.jpg,45.025684,7.657384
24992260657_9a76a474d5.jpg,45.057243,7.609738
28083553409_01ce555b71.jpg,45.025684,7.657384
28083529859_331cce0c10.jpg,45.025684,7.657384
39152991594_33618fbc34.jpg,45.025684,7.657384
28083212779_6bd99d1470.jpg,45.375935,7.801473
24990569907_0a7033ab9e.jpg,45.031894,7.673456
38920192675_724fa24f93.jpg,45.040704,7.787590
39796600961_3a07ceb046.jpg,45.377043,7.801505
25923646748_cda64afe49.jpg,45.032463,7.641082
24910187597_e8e444abd2.jpg,45.031894,7.673456
27989070589_b4747682a7.jpg,45.031894,7.673456
25867352988_2f14edea99.jpg,45.078672,7.682447
25836771328_55d0e45200.jpg,45.043700,7.681375
25809882678_5f350495b0.jpg,45.063333,7.696111
39636830291_06e485052a.jpg,44.988871,7.464705
27856191169_2e93e37e4e.jpg,45.109627,7.640980
25684189548_b5f7cedfe6.jpg,45.060426,7.676889
38658165085_1564372742.jpg,45.060426,7.676889
24686381397_be95766114.jpg,45.135277,7.624166
27777114049_ec19c9ff79.jpg,45.067180,7.682411
39495982722_378645c4b8.jpg,45.080148,7.957126
39447059092_3f559b3028.jpg,45.259175,7.617130
38936133754_232e376575.jpg,45.045965,7.654016
24626826787_184988c9e7.jpg,45.251641,7.568183
45246475965_de3f319316.jpg,45.018692,7.665238
46104815671_b449973ddf.jpg,44.988940,7.464737
27568630877_d771024798.jpg,45.135241,7.625561
26170794697_1e820ac6d9.jpg,45.072593,7.592979
40148750365_43ed181637.jpg,45.072403,7.592872
40148743475_80c49d48d6.jpg,45.072403,7.592872
30871439107_81becd24ea.jpg,45.018692,7.665238
43929692970_552b6ec86f.jpg,45.092156,7.667276
40332948124_d7a410db04.jpg,45.072593,7.592979
42171495310_0b8cfd328a.jpg,45.136259,7.626078
43607956100_ccb2496b24.jpg,45.199276,7.782161
39232888520_4472af8acd.jpg,45.072593,7.592979
40999676882_bb1c94e0c3.jpg,45.072593,7.592979
44318146974_ee6ef23205.jpg,45.064162,7.685569
44030916630_5d68a43a40.jpg,45.069305,7.690605
30908023297_feb26576cf.jpg,45.068680,7.682147
40999684742_bf09097ebd.jpg,45.072593,7.592979
28518099497_80ce13d085.jpg,45.092231,7.667598
31076670957_0087f3f893.jpg,45.063526,7.696094
41633224085_dd8b5c5d7c.jpg,45.091770,7.664959
44298294000_d23a4a33b0.jpg,45.092595,7.665603
40999688512_25945925df.jpg,45.072593,7.592979
48042571021_56b30fabba.jpg,45.092277,7.667577
41304299882_d8db69cfc1.jpg,45.092982,7.664337
48670498121_3d6ce04c44.jpg,45.093443,7.665688
44242692570_4679727bdb.jpg,45.092937,7.666980
45629315362_1a7b95b8ff.jpg,45.092368,7.666783
28058401837_06f31927cb.jpg,45.067342,7.682189
43462471140_5a781b9e6f.jpg,45.064652,7.636186
41041856191_6ea99b2513.jpg,45.072403,7.592872
45565477452_fa99927a8c.jpg,45.220672,7.627116
40332912974_01ba29de85.jpg,45.072593,7.592979
48089380437_43913f84f5.jpg,45.093049,7.665774
42026043155_afd8139188.jpg,45.070971,7.671654
41961430405_98f09b5d20.jpg,45.023421,7.669111
42558579961_993bf8c8cc.jpg,45.091861,7.667089
31354150397_59ace45b9d.jpg,45.018692,7.665238
40219009123_9d1c223d9f.jpg,45.075066,7.658479
29871234737_dbcaf593d1.jpg,45.092428,7.666976
42537628890_458cf9c206.jpg,44.992445,7.674454
40630912740_28e8fc7d4f.jpg,45.135188,7.625666
26170931917_e9a5088e17.jpg,45.072403,7.592872
45003166632_ff2966d8ea.jpg,44.845225,7.720288
32648113457_8c6191c015.jpg,45.036113,7.731225
44293432615_4f1e2a6553.jpg,45.072634,7.663736
43715310784_f2feb353bb.jpg,45.039575,7.964600
41784326510_8798fb28ce.jpg,45.102357,7.764426
28510503377_d37e1f196f.jpg,45.092156,7.663435
41113302685_b7778f0a44.jpg,45.066907,7.691234
45739156221_016488c9fb.jpg,45.068361,7.684855
40333143824_7ebaac25f4.jpg,45.072403,7.592872
39233051020_4de045049f.jpg,45.072403,7.592872
39502722795_1f7858cee1.jpg,45.103940,7.333567
40232452510_85713b4672.jpg,44.988947,7.464770
41849945295_21c97019a3.jpg,45.076551,7.638137
42024811254_2f628f92bb.jpg,45.052975,7.685301
41338027781_8981675aaf.jpg,45.092982,7.664337
48198583162_7eb14c089d.jpg,45.134472,7.624275
43291647905_88532109b3.jpg,45.068747,7.684427
41041866121_58691ce9db.jpg,45.072403,7.592872
40332939444_277ea10cf4.jpg,45.072593,7.592979
30200609557_44f49a76d2.jpg,45.069088,7.692822
44318273874_818db29ae7.jpg,44.980433,7.465081
31534933797_16230eb968.jpg,45.067330,7.682468
31164549128_9f481a7157.jpg,44.980433,7.465081
39233013860_4dc4694d90.jpg,45.072403,7.592872
46015519701_e969ec4032.jpg,45.063526,7.696094
40332874684_bed744a05f.jpg,45.072593,7.592979
40148727915_4a540e9cbc.jpg,45.072403,7.592872
29390255828_3af9e89c05.jpg,45.092111,7.666062
42025928335_87fd312fa5.jpg,45.067342,7.682189
40859554690_b9afabcf3d.jpg,45.092225,7.664395
40333140274_9ebd5f56c8.jpg,45.072403,7.592872
41485593920_413c463031.jpg,45.092550,7.664594
44303663481_19223eaf7a.jpg,45.098745,7.688466
48794776316_efedf8b933.jpg,45.068611,7.692777
48727940017_e0acca6fc7.jpg,45.257711,7.558238
48393463236_24917cf651.jpg,45.071687,7.684528
48170479611_60f3d57958.jpg,45.070301,7.687146
48015563927_354270c6ca.jpg,45.092247,7.666032
48046393201_cbcc265e5f.jpg,45.093671,7.666590
46892628465_8fa52c378c.jpg,45.064200,7.697038
46955480934_7dca9826a2.jpg,45.059812,7.697392
46918080544_710e4c3640.jpg,45.080655,7.766913
32692796467_96835d4ee6.jpg,45.069294,7.689263
47579277362_ff315e418c.jpg,45.066708,7.681535
47632070041_05927f9777.jpg,45.067762,7.682865
46712803155_9c7fe696bc.jpg,45.034275,7.666513
46690057795_89def8c16e.jpg,45.080136,7.767230
40552607463_c168942df4.jpg,45.063700,7.697049
47452546632_6780405a6c.jpg,45.067458,7.682608
47406140572_669c5fb5bd.jpg,45.073823,7.685301
32513794587_68dbc9dd26.jpg,45.080839,7.767580
46501081885_26295cde3a.jpg,45.080589,7.766926
33430924208_d418bcd0e6.jpg,45.076142,7.650990
33428102908_6123b7f284.jpg,45.072944,7.686749
47297109331_78c3054e6b.jpg,45.074687,7.658007
47271740581_1aae0a2a8e.jpg,45.073740,7.685344
40300930143_aba7a279b7.jpg,45.072717,7.686631
32323724857_6f77568c55.jpg,45.072717,7.686631
40300923883_5cc0d2cf5c.jpg,45.072717,7.686631
47208642062_0eea89686e.jpg,45.073740,7.685344
47206715352_18fdd56b39.jpg,45.117183,7.493311
47258440821_6a45a4d839.jpg,45.117183,7.493311
47256401351_a504fd54e1.jpg,45.073247,7.685762
32314392837_fe0fc1b5f3.jpg,45.073247,7.685762
40286560853_9f0c6d6a12.jpg,45.073247,7.685762
47251429991_4f3cbafc8a.jpg,45.073247,7.685762
46527108094_49633b6d1d.jpg,45.072990,7.686696
47190414672_ace561e18e.jpg,45.073247,7.685762
47241483641_425a208680.jpg,45.073247,7.685762
33365620788_9272fb4a5b.jpg,45.072990,7.686696
46318369455_59ec7022c6.jpg,45.073247,7.685762
33357109288_1cb42bd804.jpg,45.072937,7.685987
47179956022_4693366867.jpg,45.072429,7.686588
46316801825_3631d115cb.jpg,45.072937,7.685987
46500412664_f60a39e862.jpg,45.072937,7.685987
32273522307_ac467cb9cb.jpg,45.073278,7.685816
46300877345_02e0b6b8d5.jpg,45.073028,7.681739
47212575881_188b9b204d.jpg,45.073278,7.685816
46486857094_ae792d76f3.jpg,45.071800,7.685751
47197745501_28e59fc8d4.jpg,45.062889,7.698100
47145027402_d3bd287aff.jpg,45.080808,7.767559
40219010293_84a5efc672.jpg,45.075066,7.658479
40209107793_d1b80f4c8e.jpg,45.074831,7.659916
40209106493_e9964b53a0.jpg,45.074831,7.659916
46246746435_9fa02e6e03.jpg,45.073391,7.684786
46436751294_5a3e0c9d3e.jpg,45.074475,7.660388
47160210411_0646af4e78.jpg,45.074475,7.660388
40192862013_fbb75edcba.jpg,45.074247,7.661021
40192859203_d09f50434c.jpg,45.074247,7.661021
33406146888_ce229be219.jpg,45.062722,7.697789
46508587414_f40bd34226.jpg,45.073278,7.685816
46317308005_11b33ea886.jpg,45.066841,7.660517
40219013703_cca659ff18.jpg,45.075717,7.658586
33290983428_c0cdc4ca9b.jpg,45.075263,7.658189
47105673942_851d715d9f.jpg,45.074475,7.660496
46759925122_e353ea8c60.jpg,44.996633,7.605929
45890271025_5579ef65ee.jpg,44.995867,7.604169
46799159661_18d43e37af.jpg,44.995412,7.604459
39816890963_e8eed0e0c7.jpg,44.995412,7.604459
39816889563_75c54ea10a.jpg,44.995412,7.604459
46047534154_e0f7ea8401.jpg,45.070747,7.686460
45854592115_63f5331278.jpg,44.995389,7.604856
46769814361_1fc1cd881f.jpg,44.995632,7.604298
31825593157_990ee28143.jpg,44.998363,7.677791
32882556918_b4aba8bd52.jpg,44.995996,7.605350
46757827271_c052cac1c6.jpg,44.995336,7.605221
39780624793_e66946e1cf.jpg,44.995063,7.605500
46626582651_c7c1e77217.jpg,45.034709,7.666128
46597939451_71c48b48a5.jpg,45.067686,7.682447
45657531915_b0cb197854.jpg,45.063298,7.697789
45510824065_dc73f24b05.jpg,45.068055,7.658791
45896509465_fb9fbe49ac.jpg,45.074202,7.673778
31855482437_71c91a5082.jpg,44.996732,7.605950
39815845243_c911ec1353.jpg,45.066841,7.660517
31826320167_336cc6312a.jpg,45.066841,7.660517
31810699267_d60d3aeef8.jpg,45.080778,7.767269
45802174225_b7d11a15fb.jpg,45.031843,7.673606
45986522534_d92cbe709e.jpg,45.080778,7.767269
46705500751_7d22e8b3fe.jpg,45.031911,7.673242
39727951513_0b158d8ce2.jpg,45.064867,7.686781
46504963422_2e9758a4f4.jpg,45.069716,7.683820
46489203351_0372921d41.jpg,45.366180,7.628858
45575965645_04ec8b15dc.jpg,45.321511,7.719586
31549185367_de793ca57c.jpg,45.321177,7.719211
44633637300_715efb0f11.jpg,45.069008,7.692533
31481661567_cf623676d8.jpg,45.057044,7.710795
46767285652_018136000e.jpg,45.068421,7.692307
46764069552_6b61bbd767.jpg,44.996762,7.605929
39792277773_48b49e8f3a.jpg,44.995753,7.604180
46400060582_447ae6a658.jpg,45.069377,7.685138
46757861442_539fffbfc0.jpg,45.068383,7.686020
45833979125_34daafe027.jpg,45.072419,7.680572
46744814421_d02e1b94de.jpg,45.080778,7.767269
39750234713_3e7e04656e.jpg,45.258777,7.510950
46659397252_cbb079279f.jpg,45.202058,7.777258
46578408842_7ea9bc2542.jpg,45.052290,7.699551
46529482381_1bf65dff5a.jpg,45.066269,7.669944
44706337210_6d7fcf8447.jpg,45.071687,7.688994
32616472048_ee3dc6563c.jpg,45.369572,7.632783
46437647472_7561f12fa8.jpg,45.321402,7.717675
46489030801_c054aea166.jpg,45.321616,7.720136
46489015881_42b3552543.jpg,45.321472,7.720227
45575927595_e2aa8ecaa1.jpg,45.346233,7.709861
31519161237_81637be574.jpg,45.092792,7.665324
44580371735_5598a9c928.jpg,45.361301,7.769651
30515948007_f702977919.jpg,45.068550,7.659102
30465097237_0b0f784e11.jpg,45.032463,7.641082
43576968040_9c9c12c141.jpg,45.076232,7.678112
45392318901_c5bda04613.jpg,45.091802,7.664765
45308307332_a0c2d37392.jpg,45.058471,7.690980
30409566517_ded5d679b2.jpg,45.073888,7.687500
31468003408_90ca1af917.jpg,45.062184,7.680187
31464148938_ac79291c64.jpg,45.032463,7.641082
45284351782_aaff5489f1.jpg,45.072487,7.592883
45334081661_0a23088001.jpg,45.072487,7.592883
44418742465_aae72d715d.jpg,45.072722,7.593022
44418581665_9afa7dc678.jpg,45.072722,7.593022
45322416291_41d0a93167.jpg,45.072500,7.592499
43476433150_a54f8d63a9.jpg,45.032463,7.641082
45254189041_e0e12f9db9.jpg,45.072952,7.667469
30288148517_a4766ecc4c.jpg,45.048997,7.685354
30284440507_626a8a92cd.jpg,45.068055,7.683055
45172921932_ab9927dbd8.jpg,45.071666,7.685000
45222866171_3414549fa1.jpg,45.071666,7.685000
43410222580_614e42ec7f.jpg,45.070833,7.684722
30283508457_a4cde1635e.jpg,45.070833,7.676666
45204762471_ab470b2638.jpg,45.071308,7.685075
44284449225_8335683d9e.jpg,45.060590,7.694957
43372809290_ba3d6e68b5.jpg,45.054742,7.689549
45125941792_63018f2e92.jpg,45.071286,7.685550
31287199848_31d4103949.jpg,45.068004,7.682833
44248643695_07470a389b.jpg,45.135339,7.623846
30210235347_481c06a04d.jpg,45.072861,7.681975
44416851524_1f4a9eb938.jpg,45.080755,7.767291
44405215394_fa74b212be.jpg,45.068927,7.686219
45072045912_b700e0337b.jpg,45.090867,7.677155
31245078788_c886a07815.jpg,45.073759,7.688251
31245078608_a5e89346bd.jpg,45.073623,7.687736
45117942031_b2c31a235b.jpg,45.073941,7.688187
31236905358_a228d316af.jpg,45.268030,7.481421
45052721972_aec58a47c0.jpg,45.059789,7.697392
45075199591_6b5e85d3aa.jpg,45.055282,7.684786
45009512122_71ab03a693.jpg,45.262201,7.469587
44328029434_4063851a4d.jpg,45.063457,7.697467
44989411542_41b7efd6f4.jpg,44.980433,7.465081
31164582148_0443ee28c9.jpg,44.980433,7.465081
44989406302_ff6817922b.jpg,44.980433,7.465081
30101541717_622c6590bb.jpg,44.980433,7.465081
31119996698_110196fa62.jpg,45.069544,7.659191
44263154094_165fd8cfc9.jpg,45.073111,7.681342
31097786138_8f424bde61.jpg,45.067777,7.696944
31097785728_e2a4e9b50f.jpg,45.067777,7.696944
44970158561_2d82d26e20.jpg,45.067777,7.696944
44885474732_bfc92680d2.jpg,45.065460,7.680848
31051834818_cfcb727307.jpg,45.038763,8.090293
43096434790_0fa947125d.jpg,45.102357,7.764426
44858348752_330423e155.jpg,45.280080,8.076324
44183369814_99269db979.jpg,45.073778,7.685816
30957811988_ace78f6153.jpg,45.059166,7.622777
44099839094_38a3d7952e.jpg,45.073732,7.689700
43960445034_681f9750a7.jpg,45.068529,7.684013
42868785760_120e7c27ab.jpg,45.068529,7.684013
42843173440_5e12399fef.jpg,45.080286,7.691287
43925120004_1f56be084c.jpg,44.998363,7.677791
30722721428_20d7d374e7.jpg,45.072005,7.955549
43607955090_ac890e4e79.jpg,45.199276,7.782161
44420829705_3d1bf4de39.jpg,45.072487,7.592883
44418747315_4fc6651182.jpg,45.072722,7.593022
45273687082_6e8c3a7074.jpg,45.028611,7.664166
45273574322_0cec9fca26.jpg,45.072500,7.592499
30354401737_9ea9f4a43e.jpg,45.072722,7.593022
31330569428_b0809dd43f.jpg,45.071308,7.685075
45154374122_a44235d36f.jpg,45.069845,7.674903
31247185718_0aba9bfb0d.jpg,45.090867,7.677155
45072045202_6a4f8f12cb.jpg,45.090867,7.677155
44373292814_e8b83938fb.jpg,45.071000,7.684980
44373280984_cb0bb29d60.jpg,45.109402,7.640772
31164637038_669a775b8b.jpg,44.980433,7.465081
45037358421_6460a96b04.jpg,45.064162,7.685569
30101307567_eea5f3c97b.jpg,45.064162,7.685569
44093529185_dcf9aa6697.jpg,44.829232,7.729532
43161240670_4f539b9671.jpg,45.090867,7.677155
31100247118_955913fdd9.jpg,45.090867,7.677155
43158321180_05b4ee5aaf.jpg,45.067777,7.696944
44935794391_49c8df5788.jpg,45.070644,7.656347
29979139147_677ac6587c.jpg,45.069686,7.658886
43096413740_1d534e54be.jpg,45.075702,7.395601
29928472657_8951e16915.jpg,45.063212,7.712505
44772661592_4e375b58f7.jpg,45.092084,7.664841
44768113152_f34b59b2c3.jpg,45.072232,7.685279
44017702834_60ce2034eb.jpg,45.026352,7.673199
30844704618_58f0c48afb.jpg,45.133254,7.628974
30799951608_54839b1e83.jpg,45.069679,7.662770
30784011528_96edc52fdb.jpg,45.068997,7.685526
29701149317_55f3d5363e.jpg,45.063147,7.677791
44546129302_a0856154ce.jpg,45.070408,7.634188
30676194268_5d7e17aace.jpg,45.055121,7.689989
43634867575_6513a3b3e9.jpg,45.059759,7.697231
44490057082_c32f835f61.jpg,45.280080,8.076324
43821506694_b8b3b0582b.jpg,45.280080,8.076324
43611113755_786e8f743d.jpg,45.025684,7.657384
44449291372_6267c8ea2e.jpg,45.069152,7.659563
43770084434_f40e58ddf5.jpg,45.025791,7.673327
29529160757_d50d574404.jpg,45.070512,7.687082
44362202882_613a310c10.jpg,45.091841,7.524094
44331055572_6e270007c1.jpg,45.032463,7.641082
46092706411_16b130a5a6.jpg,45.065503,7.693819
45352771444_3b60065181.jpg,45.071513,7.685270
31138250317_9e5134092c.jpg,45.070580,7.684700
32205683628_cf3b93bcee.jpg,45.066481,7.688627
46009072962_b8889e2294.jpg,45.068534,7.684292
44242929700_369233d63d.jpg,45.068519,7.684228
46008787962_1bd7c6878b.jpg,45.068550,7.684164
45113290235_083c7b25a1.jpg,45.045085,7.684797
44157630240_9f46c9c26c.jpg,45.112913,7.707686
32084095518_ce2ae90029.jpg,45.071202,7.684807
45211143384_d12ea664be.jpg,45.071406,7.684696
45196216374_828792da70.jpg,45.064261,7.694056
32040096288_84c0237263.jpg,45.031939,7.673113
44067994850_41ef6b1fa0.jpg,45.073841,7.698441
32011041148_f92c9b8194.jpg,45.031810,7.673563
45811528582_eb2fcdcdb3.jpg,45.059972,7.697341
31958076778_4898b8e2f7.jpg,45.081051,7.683624
44841154235_7f074ddc44.jpg,45.063033,7.695579
45669884542_8ed0078f3f.jpg,45.080475,7.396609
44991047744_af312e6c01.jpg,45.065337,7.694095
45662157601_d560a8ab54.jpg,45.073055,7.681111
32221160508_77693a2fc5.jpg,45.031800,7.673177
45334490234_c115767502.jpg,45.068550,7.684142
44898247315_b1fd61e859.jpg,45.018692,7.665238
44898243715_3478fbd398.jpg,45.018692,7.665238
31840942878_c74bf2de67.jpg,45.011515,7.825001
30708317117_a5f3543632.jpg,45.093029,7.666475
41899712641_aceed4cd95.jpg,45.029944,7.656316
41869201711_8d3dd6c5ea.jpg,45.059780,8.088208
39872973860_ce2e4a721a.jpg,45.028906,7.663629
41592148352_02e2a8129e.jpg,45.321253,7.913556
39607263850_45d24664e6.jpg,45.032463,7.641082
26433873357_f271b7bd9c.jpg,45.133710,7.624985
40284203725_c51bb79508.jpg,44.845598,7.719097
41179039811_229b3e60f7.jpg,45.069292,7.682844
41787470052_97f0a25cc0.jpg,45.068807,7.686223
26728217567_14e69bdc0e.jpg,45.128118,7.632585
48948212457_0203c30237.jpg,45.071944,7.686388
48948208517_fa627f045c.jpg,45.075991,7.683377
48948206402_a69016d21d.jpg,45.076563,7.681063
48948193947_8b2853e499.jpg,45.063055,7.695000
46866539824_b48f3f9a92.jpg,45.074844,7.682380
46675049035_6c66992863.jpg,45.035008,7.729875
32648111077_96c337b5ac.jpg,45.063255,7.679916
46675052655_c95688050b.jpg,45.069455,7.688147
47590585141_87f1521ae9.jpg,45.070788,7.682938
46675052555_04c107fd7d.jpg,45.070675,7.682808
47537616872_d20eed61cd.jpg,45.179416,7.648394
47537616722_85337f98aa.jpg,45.067344,7.682186
46866540434_67f7b9c0d5.jpg,45.066294,7.681061
47537616552_e2deba37c4.jpg,45.067244,7.682677
46866539974_620581828a.jpg,45.067486,7.682708
47537616132_7c3fd1bc21.jpg,45.073925,7.685369
46675049775_b48f3f9a92.jpg,45.062294,7.676483
46866539704_d4bcca1277.jpg,45.062202,7.676352
47537616022_8dc31a054e.jpg,45.062305,7.676513
47537615882_133b83afa8.jpg,45.062133,7.676447
46675049445_7e691790db.jpg,45.080533,7.766958
46866539264_5321186678.jpg,45.080763,7.766930
32648113797_ff8a8c963a.jpg,45.081091,7.768208
46866539014_2ec4676e55.jpg,45.081069,7.769302
46675049155_6e83d9b1bb.jpg,45.080330,7.768066
32648113527_a1285d3941.jpg,45.053999,7.753091
32648113177_8149dc29e7.jpg,45.079419,7.766913
46675048765_849d62fa69.jpg,45.066047,7.693361
32648113037_ac9bbe1c2f.jpg,45.066147,7.693766
46675048605_2cc295dd35.jpg,45.065991,7.694044
32648112937_0003c58171.jpg,45.065494,7.694886
46675048455_624609eb5f.jpg,45.064244,7.697111
32648112697_1f97b2aa61.jpg,45.064483,7.697769
46675048225_8a24747754.jpg,45.060672,7.698583
46675048125_b79e6882e5.jpg,45.069366,7.688152
32648112567_b79e6882e5.jpg,45.064830,7.695163
32648112407_c000a3d5c6.jpg,45.069466,7.688141
47537613532_4a580ed083.jpg,45.069405,7.688202
47537613292_d9e7982717.jpg,45.069611,7.687980
32648112147_a0456e1dda.jpg,45.069441,7.688172
47537612992_1f9f945db9.jpg,45.069377,7.688238
47537612812_511d8063e9.jpg,45.070847,7.682988
32648111927_9a8c7b6e60.jpg,45.069447,7.688347
32648111807_544bbd3fdf.jpg,45.070811,7.682861
32648111717_df415a58d1.jpg,45.070555,7.679305
47537612602_9270d54589.jpg,45.070294,7.679361
32648111567_0563539212.jpg,45.070202,7.678066
47537612372_cea6dab4df.jpg,45.069827,7.677725
32648111287_aae3fc7a34.jpg,45.069605,7.677902
47537611752_46a1f12995.jpg,45.059108,7.687963
32648110997_0cef1b171f.jpg,45.051277,7.686325
47537611632_596be0f4e7.jpg,45.051125,7.686191
32648110737_a6911bb650.jpg,45.049544,7.685380
32648110637_2f151d7fa0.jpg,45.048697,7.684997
47537611362_3ba5bf6f08.jpg,45.049450,7.685413
33713591808_11795263d5.jpg,45.036166,7.638569
33713591758_0e0c1164d4.jpg,45.090580,7.643000
33713591708_df77865d94.jpg,45.067444,7.682569
33713591618_350902f92d.jpg,45.073386,7.684780
33713591528_e6979fa4c6.jpg,45.073658,7.685344
33713591428_72b986c373.jpg,45.073688,7.685319
33713591268_0e8eedb5d7.jpg,45.073669,7.685336
33713591188_983f31d35b.jpg,45.080744,7.766916
33713591108_45454d2e2c.jpg,45.079772,7.766780
33713591018_bc2b8c51ba.jpg,45.058083,7.683838
33713590948_30ffa60564.jpg,45.058086,7.683944
33713590788_42bacd43f8.jpg,45.063472,7.680066
44324491650_5668f38128.jpg,45.070600,7.686469
46289044381_e2bda1bfb3.jpg,45.109911,7.642763
31350281607_93cbf40d31.jpg,45.109897,7.642772
46238768452_f909cd2dc3.jpg,45.109894,7.642727
32417334948_7507115995.jpg,45.109816,7.642855
46238767802_4474489e6d.jpg,45.109902,7.642791
32417333588_748000477a.jpg,45.109902,7.642791
45565548404_8416b5e3e3.jpg,45.110261,7.642452
32417331978_fed83b92c4.jpg,45.110230,7.642472
45565547564_b2f1d69926.jpg,45.110261,7.642449
32417330808_2e112e69b1.jpg,45.108758,7.639105
46238765172_7cbc1e032c.jpg,45.109058,7.639324
46238764472_a9db7e5633.jpg,45.109263,7.640488
32417328968_cef99d7760.jpg,45.109263,7.640497
32417328578_ae86b815c1.jpg,45.109341,7.640736
45565544184_f7d0311dc3.jpg,45.109452,7.640772
32417327318_833ae913ec.jpg,45.109391,7.640833
46238762532_178cebed7c.jpg,45.109313,7.641219
32417325608_e267cfd0bb.jpg,45.109344,7.641116
31350275607_f3942bd8ae.jpg,45.110397,7.642358
32417324368_2c8e0560db.jpg,45.111130,7.642675
46238760292_cc2a5764ec.jpg,45.111108,7.642666
31350274567_cff7f8995a.jpg,45.111113,7.642694
46238758612_bb43d43d03.jpg,45.110836,7.643247
46289040531_3e16117e75.jpg,45.068402,7.684330
31350273167_27ab6227cf.jpg,45.068827,7.684211
45376307255_fd4e39899a.jpg,45.068355,7.684425
31350272747_53d37e8f56.jpg,45.068691,7.684658
46238756542_4d4570f0c5.jpg,45.068802,7.684252
45376305905_75107d4292.jpg,45.068900,7.684372
45376305155_a9e6f8dbb6.jpg,45.068719,7.684391
32417319108_432b0ac0c1.jpg,45.068358,7.684408
45565532194_934c8359a7.jpg,45.068802,7.684361
46238752372_781194f779.jpg,45.068455,7.684472
46289038301_d31842b834.jpg,45.062644,7.679588
46238750582_7c041eb488.jpg,45.055683,7.672727
46289037401_24c478c905.jpg,45.109869,7.642824
