{"262267782": {"name": "Colapasta - Ristorante per passione", "slug": "colapasta-ristorante-per-passione", "has_public_page": true, "lat": 45.0738, "lng": 7.59596}, "216953455438752": {"name": "Bricks-Ristorante-Pizza", "slug": "bricks-ristorante-pizza", "has_public_page": true, "lat": 45.06151, "lng": 7.68409}, "112366003541174": {"name": "Soffice pizza e sfizi", "slug": "soffice-pizza-e-sfizi", "has_public_page": true, "lat": 45.06275, "lng": 7.70084}, "111114254139458": {"name": "GranSicily", "slug": "gransicily", "has_public_page": true, "lat": 45.06655, "lng": 7.68346}, "1668747056544329": {"name": "WE", "slug": "we", "has_public_page": true, "lat": 45.0199870554, "lng": 7.8348439307}, "277910846": {"name": "Pomodoro & Basilico - Pizza and Food", "slug": "pomodoro-basilico-pizza-and-food", "has_public_page": true, "lat": 44.9540086534, "lng": 7.6681493689},"408380793073266": {"name": "Affini Porta Palazzo", "slug": "affini-porta-palazzo", "has_public_page": true, "lat": 45.07583489, "lng": 7.682573445}, "1329207847183309": {"name": "La Drogheria Pugliese", "slug": "la-drogheria-pugliese", "has_public_page": true, "lat": 45.06187, "lng": 7.68677}, "1020693724": {"name": "L' Angolo Partenopeo ristorante", "slug": "l-angolo-partenopeo-ristorante", "has_public_page": true, "lat": 45.0211756662, "lng": 7.5820993645}, "164018110955666": {"name": "OFF TOPIC", "slug": "off-topic", "has_public_page": true, "lat": 45.07336, "lng": 7.70344}, "282548267": {"name": "Diecicento Ristorante Pizzeria", "slug": "diecicento-ristorante-pizzeria", "has_public_page": true, "lat": 45.07089, "lng": 7.67906}, "239336957": {"name": "Ichi Ristorante Giapponese -Torino", "slug": "ichi-ristorante-giapponese-torino", "has_public_page": true, "lat": 45.02793, "lng": 7.64162}, "100960441791286": {"name": "Il Tegamino Torino", "slug": "il-tegamino-torino", "has_public_page": true, "lat": 45.0692420774, "lng": 7.7008887142}, "237452787": {"name": "AMICI MIEI", "slug": "amici-miei", "has_public_page": true, "lat": 45.06681, "lng": 7.66835}, "2477680765791495": {"name": "Past\u00f3", "slug": "pasto", "has_public_page": true, "lat": 45.06858, "lng": 7.66624}, "657966281318626": {"name": "Pescaria", "slug": "pescaria", "has_public_page": true, "lat": 45.069919, "lng": 7.6854153}, "397771947371088": {"name": "Balik Restaurant", "slug": "balik-restaurant", "has_public_page": true, "lat": 45.07126, "lng": 7.67625}, "361778457551578": {"name": "La Fabbrica della Pizza", "slug": "la-fabbrica-della-pizza", "has_public_page": true, "lat": 45.07659, "lng": 7.67099}, "109409037130719": {"name": "Uagli\u00f2", "slug": "uaglio", "has_public_page": true, "lat": 45.0584558, "lng": 7.6825035}, "1389231328072594": {"name": "Alpi Empanadas", "slug": "alpi-empanadas", "has_public_page": true, "lat": 45.0660441884, "lng": 7.6461715326}, "15778996": {"name": "Poormanger", "slug": "poormanger", "has_public_page": true, "lat": 45.06533, "lng": 7.6914}, "579584222514140": {"name": "OPERA ingegno e creativit\u00e0", "slug": "opera-ingegno-e-creativita", "has_public_page": true, "lat": 45.06845, "lng": 7.66621}, "106515970939476": {"name": "Strafud - Farine Antiche Sapori del Sud", "slug": "strafud-farine-antiche-sapori-del-sud", "has_public_page": true, "lat": 45.07346, "lng": 7.57664}, "1214605685277195": {"name": "Manimpasta", "slug": "manimpasta", "has_public_page": true, "lat": 45.09219, "lng": 7.57192}, "1023947897": {"name": "Via Berthollet", "slug": "via-berthollet", "has_public_page": true, "lat": 45.0579369501, "lng": 7.6845847754}, "5254038": {"name": "One Apple-Torino", "slug": "one-apple-torino", "has_public_page": true, "lat": 45.0653112144, "lng": 7.6819278291}, "102541771669806": {"name": "Torteria Bellini", "slug": "torteria-bellini", "has_public_page": true, "lat": 45.1023653658, "lng": 7.5506973267}, "161951450998060": {"name": "Solera", "slug": "solera", "has_public_page": true, "lat": 45.0597526555, "lng": 7.6948761086}, "108109617700892": {"name": "Savur\u00e9", "slug": "savure", "has_public_page": true, "lat": 45.0593666, "lng": 7.6838368}, "354501278613842": {"name": "Piada Tosta", "slug": "piada-tosta", "has_public_page": true, "lat": 45.0689365244, "lng": 7.6651740074}, "113384193546915": {"name": "Le Papille", "slug": "le-papille", "has_public_page": true, "lat": 45.0740964324, "lng": 7.6630496979}, "327260859": {"name": "Ristorante Corcovado", "slug": "ristorante-corcovado", "has_public_page": true, "lat": 44.9727983837, "lng": 7.616314888}, "719857258": {"name": "IL Pensiero", "slug": "il-pensiero", "has_public_page": true, "lat": 45.05605, "lng": 7.65043}, "252644021965651": {"name": "Bomaki Uramakeria", "slug": "bomaki-uramakeria", "has_public_page": true, "lat": 45.06196, "lng": 7.69427}, "1020997057": {"name": "Sicily, via Gramsci, Torino", "slug": "sicily-via-gramsci-torino", "has_public_page": true, "lat": 45.065106281, "lng": 7.6795337377}}
