{"1029077662": {"name": "Sala Gonin Porta Nuova", "slug": "sala-gonin-porta-nuova", "has_public_page": true, "lat": 45.0619042, "lng": 7.6788304}, "13917562": {"name": "Museo del Grande Torino e della Leggenda Granata", "slug": "museo-del-grande-torino-e-della-leggenda-granata", "has_public_page": true, "lat": 45.05981, "lng": 7.5808}, "3592020": {"name": "Venaria Reale", "slug": "venaria-reale", "has_public_page": true, "lat": 45.13326, "lng": 7.63274}, "406868117": {"name": "M.A.O", "slug": "mao", "has_public_page": true, "lat": 45.072108, "lng": 7.680599}, "1416772115232433": {"name": "Museo d'arte orientale", "slug": "museo-darte-orientale", "has_public_page": true, "lat": 45.0746108784, "lng": 7.6801634329}, "950747899": {"name": "Arci Torino", "slug": "arci-torino", "has_public_page": true, "lat": 45.066480573, "lng": 7.69726407}, "104697604306938": {"name": "Hermitage Cornici e Arte", "slug": "hermitage-cornici-e-arte", "has_public_page": true, "lat": 45.0779679517, "lng": 7.6674056053}, "2392023244357098": {"name": "Borgo San Paolo", "slug": "borgo-san-paolo", "has_public_page": true, "lat": 45.0577885693, "lng": 7.6473107138}, "415456721": {"name": "Museo Ettore Fico", "slug": "museo-ettore-fico", "has_public_page": true, "lat": 45.09202, "lng": 7.68561}, "255010331": {"name": "Piazza Bodoni Conservatorio Giuseppe Verdi", "slug": "piazza-bodoni-conservatorio-giuseppe-verdi", "has_public_page": true, "lat": 45.063241, "lng": 7.684542}, "449291327": {"name": "MAU - Museo di Arte Urbana", "slug": "mau-museo-di-arte-urbana", "has_public_page": true, "lat": 45.08161, "lng": 7.65438}, "1014141738": {"name": "Fondazione Merz", "slug": "fondazione-merz", "has_public_page": true, "lat": 45.0620938134, "lng": 7.6428419352}, "576438732": {"name": "Museo Nazionale della Montagna", "slug": "museo-nazionale-della-montagna", "has_public_page": true, "lat": 45.05966, "lng": 7.69719}, "1003920854": {"name": "Chiesa della Madonna degli Angeli (Torino)", "slug": "chiesa-della-madonna-degli-angeli-torino", "has_public_page": true, "lat": 45.0647194444, "lng": 7.6840194444}, "5437310": {"name": "Castello di Moncalieri", "slug": "castello-di-moncalieri", "has_public_page": true, "lat": 45.00178, "lng": 7.68644}, "749934909": {"name": "Museo Del Cinema", "slug": "museo-del-cinema", "has_public_page": true, "lat": 45.0690231965, "lng": 7.6929895983}, "495606705": {"name": "Accademia Albertina", "slug": "accademia-albertina", "has_public_page": true, "lat": 45.0673922779, "lng": 7.6894788163}, "1569953053037289": {"name": "Polo Reale Torino", "slug": "polo-reale-torino", "has_public_page": true, "lat": 45.072245284, "lng": 7.686491901}, "1854087764605609": {"name": "Piazza Crimea - Torino", "slug": "piazza-crimea-torino", "has_public_page": true, "lat": 45.05704281, "lng": 7.69473176}, "1100709": {"name": "Piazza Carlina", "slug": "piazza-carlina", "has_public_page": true, "lat": 45.0664049583, "lng": 7.6887374555}, "102990321280979": {"name": "Palazzo Madama Mostra Andrea Mantegna", "slug": "palazzo-madama-mostra-andrea-mantegna", "has_public_page": true, "lat": 45.0712492, "lng": 7.6858177}, "522675361185427": {"name": "Museo di antropologia criminale Cesare Lombroso", "slug": "museo-di-antropologia-criminale-cesare-lombroso", "has_public_page": true, "lat": 45.0497591, "lng": 7.6803562}, "1402134840039043": {"name": "Palazzo Barolo", "slug": "palazzo-barolo", "has_public_page": true, "lat": 45.0748333333, "lng": 7.6785555556}, "1801732470048169": {"name": "Museo della frutta di Torino", "slug": "museo-della-frutta-di-torino", "has_public_page": true, "lat": 45.049778, "lng": 7.679596}, "1029538623": {"name": "Museo di anatomia umana Luigi Rolando", "slug": "museo-di-anatomia-umana-luigi-rolando", "has_public_page": true, "lat": 45.04942, "lng": 7.6805}, "293996461521881": {"name": "Reggia di Venaria Reale", "slug": "reggia-di-venaria-reale", "has_public_page": true, "lat": 45.1353141, "lng": 7.625478}, "400447614069023": {"name": "Borgo Crimea", "slug": "borgo-crimea", "has_public_page": true, "lat": 45.0571399, "lng": 7.69376}, "984191518": {"name": "Cit Turin", "slug": "cit-turin", "has_public_page": true, "lat": 45.07379239, "lng": 7.65665754}, "1637653": {"name": "San Carlo dal 1973", "slug": "san-carlo-dal-1973", "has_public_page": true, "lat": 45.06778, "lng": 7.68328}, "598465849": {"name": "Piazzetta 4 Marzo", "slug": "piazzetta-4-marzo", "has_public_page": true, "lat": 45.07357235, "lng": 7.6827276}, "1016372293": {"name": "Barriera Milano", "slug": "barriera-milano", "has_public_page": true, "lat": 45.0907533748, "lng": 7.6955125271}, "283329836": {"name": "Torino Piazza Castello", "slug": "torino-piazza-castello", "has_public_page": true, "lat": 45.0423113185, "lng": 7.6713144965}, "1011084790": {"name": "Borgo Campidoglio", "slug": "borgo-campidoglio", "has_public_page": true, "lat": 45.08161, "lng": 7.65438}, "1581164852147557": {"name": "MUSLI - Museo della Scuola e del Libro per l'Infanzia", "slug": "musli-museo-della-scuola-e-del-libro-per-linfanzia", "has_public_page": true, "lat": 45.0747209, "lng": 7.678486}, "450072691": {"name": "Mufant - Museo del Fantastico e della Fantascienza di Torino", "slug": "mufant-museo-del-fantastico-e-della-fantascienza-di-torino", "has_public_page": true, "lat": 45.1072092706, "lng": 7.6910734177}, "621258794": {"name": "Palazzo Falletti di Barolo", "slug": "palazzo-falletti-di-barolo", "has_public_page": true, "lat": 45.0747209, "lng": 7.678486}, "1666106053646976": {"name": "GAM - Galleria Civica D'arte Moderna e Contemporanea", "slug": "gam-galleria-civica-darte-moderna-e-contemporanea", "has_public_page": true, "lat": 45.073958435, "lng": 7.6819863999}, "442283132774946": {"name": "Parco del Valentino", "slug": "parco-del-valentino", "has_public_page": true, "lat": 45.054, "lng": 7.686}, "214583355814802": {"name": "Amici Biblioteca d'Arte Musei Civici Torino", "slug": "amici-biblioteca-darte-musei-civici-torino", "has_public_page": true, "lat": 45.0650818788, "lng": 7.6692546522}, "520502951757071": {"name": "Basilica di Maria Ausiliatrice,", "slug": "basilica-di-maria-ausiliatrice", "has_public_page": true, "lat": 45.073890665, "lng": 7.682113905}, "646702408": {"name": "Galleria Sabauda", "slug": "galleria-sabauda", "has_public_page": true, "lat": 45.0740217977, "lng": 7.6861157485}, "260703890": {"name": "Bar Abrate", "slug": "bar-abrate", "has_public_page": true, "lat": 45.06909, "lng": 7.68848}, "1169801": {"name": "Castello di Rivoli Museo d'Arte Contemporanea", "slug": "castello-di-rivoli-museo-darte-contemporanea", "has_public_page": true, "lat": 45.0696506804, "lng": 7.5103032589}, "16810804": {"name": "Museo del Risparmio", "slug": "museo-del-risparmio", "has_public_page": true, "lat": 45.072138107, "lng": 7.6798268975}, "1021579268": {"name": "Fiorfood", "slug": "fiorfood", "has_public_page": true, "lat": 45.06919, "lng": 7.68284}, "1463053990476571": {"name": "Creative-Cables Store Torino", "slug": "creative-cables-store-torino", "has_public_page": true, "lat": 45.0623, "lng": 7.68556}, "402910226788140": {"name": "Nuvola Lavazza", "slug": "nuvola-lavazza", "has_public_page": true, "lat": 45.08091, "lng": 7.6924}, "2392545304333267": {"name": "Space Adventure", "slug": "space-adventure", "has_public_page": true, "lat": 45.0532982625, "lng": 7.685064479}, "874407454": {"name": "Palazzo Carignano", "slug": "palazzo-carignano", "has_public_page": true, "lat": 45.068889, "lng": 7.686111}, "111962690249194": {"name": "Biblioteca dell'Accademia Albertina di Belle Arti di Torino", "slug": "biblioteca-dellaccademia-albertina-di-belle-arti-di-torino", "has_public_page": true, "lat": 45.06751, "lng": 7.6897}, "349345807": {"name": "Pinacoteca Giovanni e Marella Agnelli", "slug": "pinacoteca-giovanni-e-marella-agnelli", "has_public_page": true, "lat": 45.032966837, "lng": 7.6659859045}, "18913301": {"name": "Palazzo Chiablese", "slug": "palazzo-chiablese", "has_public_page": true, "lat": 45.0728105418, "lng": 7.6850603806}, "453353978": {"name": "Pinacoteca Agnelli", "slug": "pinacoteca-agnelli", "has_public_page": true, "lat": 45.0330479187, "lng": 7.6659926694}, "235096100": {"name": "Fondazione Sandretto Re Rebaudengo", "slug": "fondazione-sandretto-re-rebaudengo", "has_public_page": true, "lat": 45.0574095627, "lng": 7.6520084819}, "235436720": {"name": "Castello di Rivoli", "slug": "castello-di-rivoli", "has_public_page": true, "lat": 45.0697834301, "lng": 7.5102437689}, "884326748276933": {"name": "Galleria Sabauda", "slug": "galleria-sabauda", "has_public_page": true, "lat": 45.068333, "lng": 7.684167}, "892936874202553": {"name": "Japs\u2022cucinagiapponese", "slug": "japscucinagiapponese", "has_public_page": true, "lat": 45.04769, "lng": 7.67285}, "747298899": {"name": "Royal Palace of Turin", "slug": "royal-palace-of-turin", "has_public_page": true, "lat": 45.0727, "lng": 7.686}, "696187996": {"name": "Museo Carpano", "slug": "museo-carpano", "has_public_page": true, "lat": 45.0353713517, "lng": 7.6672375264}, "627116986": {"name": "Osservatorio astronomico di Torino", "slug": "osservatorio-astronomico-di-torino", "has_public_page": true, "lat": 45.04125, "lng": 7.76516}, "1029643179": {"name": "Pizza Vittorio", "slug": "pizza-vittorio", "has_public_page": true, "lat": 45.064079269, "lng": 7.696416378}, "657368184594273": {"name": "Piazza Solferino", "slug": "piazza-solferino", "has_public_page": true, "lat": 45.0696484926, "lng": 7.6778120898}, "196134120407977": {"name": "Fondazione e Museo del Tessile di Chieri", "slug": "fondazione-e-museo-del-tessile-di-chieri", "has_public_page": true, "lat": 45.0104042817, "lng": 7.8229693141}, "1257862": {"name": "Piazza Carignano", "slug": "piazza-carignano", "has_public_page": true, "lat": 45.0692901092, "lng": 7.6849586298}}
