{"1003920854": {"current_cursor": "1031344049709312811", "cursor_init": "2193679571740547084", "lat": 45.0647194444, "lng": 7.6840194444, "name": "Chiesa della Madonna degli Angeli (Torino)"}, "1008208803": {"current_cursor": "1089073398631301908", "cursor_init": "2210904701726548764", "lat": 45.06199, "lng": 7.68795, "name": "Chiesa di San Massimo"}, "1009043065": {"current_cursor": "854247726170394635", "cursor_init": "2211336948239380371", "lat": 45.0867, "lng": 7.6816247, "name": "Aurora"}, "1011084790": {"current_cursor": "1063924152802507543", "cursor_init": "2210479957871397388", "lat": 45.08161, "lng": 7.65438, "name": "Borgo Campidoglio"}, "1011537377": {"current_cursor": "2365627903217353988", "cursor_init": "2155956880244607393", "lat": 45.04312217, "lng": 7.66988841, "name": "Torino Piazza Castello"}, "1013293358": {"current_cursor": "1068194339108932806", "cursor_init": "1561892623256405580", "lat": 45.0579952662, "lng": 7.6350170672, "name": "Piadineria Ruffini"}, "1014141738": {"current_cursor": "1904424125441441438", "cursor_init": "2209863204157802637", "lat": 45.0620938134, "lng": 7.6428419352, "name": "Fondazione Merz"}, "1015790343": {"current_cursor": "1093313853632567327", "cursor_init": "2210264650197523049", "lat": 45.06079, "lng": 7.6743, "name": "A tutto vapore di Chiara & Vale"}, "1015795473": {"current_cursor": "1142815978006345818", "cursor_init": "2206066050919839781", "lat": 45.0648230605, "lng": 7.673818811, "name": "Andrea Vanoli"}, "1015808819": {"current_cursor": "1088382518160501935", "cursor_init": "2197520430089245703", "lat": 45.0919268576, "lng": 7.6867222965, "name": "Gagliardi e Domke"}, "1016372293": {"current_cursor": "1356563798940934956", "cursor_init": "2211286823790475562", "lat": 45.0907533748, "lng": 7.6955125271, "name": "Barriera Milano"}, "1018112858": {"current_cursor": "1415448206888569588", "cursor_init": "2211061970594040102", "lat": 45.09873, "lng": 7.68327, "name": "Lampados Centro Estetico Torino"}, "1018147612": {"current_cursor": "1405775806923441160", "cursor_init": "2210337853049720495", "lat": 45.0667, "lng": 7.7, "name": "Torino Fiat Factory Lingotto"}, "1019724722": {"current_cursor": "1630034383330488935", "cursor_init": "2202280554641007872", "lat": 45.0723827064, "lng": 7.6651336644, "name": "Corso Inghilterra"}, "102051354614942": {"current_cursor": "2208762983543452111", "cursor_init": "2208852281240166314", "lat": 45.07527, "lng": 7.68343, "name": "Avocuddle Caf\u00e9"}, "1020806822": {"current_cursor": "1123763650276137059", "cursor_init": "2205323897331759886", "lat": 45.0752363004, "lng": 7.6953425863, "name": "Borgo Rossini"}, "1020997057": {"current_cursor": "1085536723328750491", "cursor_init": "1585126006363025779", "lat": 45.065106281, "lng": 7.6795337377, "name": "Sicily, via Gramsci, Torino"}, "1021133744": {"current_cursor": "1161151089288381378", "cursor_init": "2209481589411326363", "lat": 45.0571404, "lng": 7.68467, "name": "MooD23"}, "1021579268": {"current_cursor": "1215944894477243840", "cursor_init": "2195202298546808518", "lat": 45.06919, "lng": 7.68284, "name": "Fiorfood"}, "1023947897": {"current_cursor": "1184797675159837551", "cursor_init": "2203714026341531019", "lat": 45.0579369501, "lng": 7.6845847754, "name": "Via Berthollet"}, "1024670717": {"current_cursor": "1393074214625623623", "cursor_init": "2211237065646746376", "lat": 45.064067509, "lng": 7.696627748, "name": "Ponte Vittorio Emanuele I"}, "1025053125": {"current_cursor": "1162888305998935185", "cursor_init": "2179377517122096083", "lat": 45.06259765, "lng": 7.64263446, "name": "Piazza Carignano Torino"}, "1025160057": {"current_cursor": "1229709470031728670", "cursor_init": "2199521562055426384", "lat": 45.0721717, "lng": 7.678401, "name": "Panini di mare Torino"}, "1027151136": {"current_cursor": "2330621207560562930", "cursor_init": "2211249591584707699", "lat": 45.0680512, "lng": 7.6427919, "name": "Cenisia"}, "102908764": {"current_cursor": "1366066994516195731", "cursor_init": "2209922975751469164", "lat": 45.05215, "lng": 7.67614, "name": "Unico officina di tendenza"}, "102914991424698": {"current_cursor": "1646106288651078481", "cursor_init": "1986994629100065002", "lat": 45.06868, "lng": 7.69953, "name": "Via vanchiglia Torino"}, "1029210040617088": {"current_cursor": "2434215589152874908", "cursor_init": "2211266529945879363", "lat": 45.077204462, "lng": 7.6838639633, "name": "Porta Palazzo, Torino"}, "1029538623": {"current_cursor": "1019512042838204614", "cursor_init": "2209091912296707693", "lat": 45.04942, "lng": 7.6805, "name": "Museo di anatomia umana Luigi Rolando"}, "1029643179": {"current_cursor": "1936296605415394759", "cursor_init": "2211168615034523688", "lat": 45.064079269, "lng": 7.696416378, "name": "Pizza Vittorio"}, "1029884708": {"current_cursor": "1378302773619879935", "cursor_init": "2209455841099186660", "lat": 45.06954, "lng": 7.68792, "name": "Libreria Mercurio Torino"}, "1030927780": {"current_cursor": "1091065009920454819", "cursor_init": "1565830390732321757", "lat": 45.047646351, "lng": 7.6829989722, "name": "Palazzo Del Lavoro, Turin"}, "1031506358": {"current_cursor": "1180435778095621720", "cursor_init": "2206106564843085263", "lat": 45.0754435053, "lng": 7.679391001, "name": "Quadrato"}, "1031668770": {"current_cursor": "1123257860659913164", "cursor_init": "2191486310466894556", "lat": 45.07512, "lng": 7.6901, "name": "Treb\u00ec Bistrot"}, "1033400237": {"current_cursor": "1487054553643495091", "cursor_init": "2211068739353994820", "lat": 45.0689310725, "lng": 7.6857218405, "name": "Museo del Risorgimento (Torino)"}, "104076966295777": {"current_cursor": "1455024864293228892", "cursor_init": "2211121109022573614", "lat": 45.08333333, "lng": 7.76666667, "name": "Superga"}, "105403687979571": {"current_cursor": "2428640120894023358", "cursor_init": "2085813011068547839", "lat": 45.0917225958, "lng": 7.6572291581, "name": "Parco Dora"}, "10559955": {"current_cursor": "390664418500987774", "cursor_init": "2206699076737618755", "lat": 45.07902, "lng": 7.68325, "name": "Sapordivino"}, "105796198002918": {"current_cursor": "1461622632084402138", "cursor_init": "1787940985726906080", "lat": 45.0702, "lng": 7.6777, "name": "Parco Del Valentino Torino"}, "106038": {"current_cursor": "1351647945510313602", "cursor_init": "2211310681521858029", "lat": 45.0542686946, "lng": 7.6855427731, "name": "Castello del Valentino"}, "109409037130719": {"current_cursor": "2172735965152947059", "cursor_init": "2211179252276127390", "lat": 45.0584558, "lng": 7.6825035, "name": "Uagli\u00f2"}, "109978160468756": {"current_cursor": "2184924068667669855", "cursor_init": "2210299949367877469", "lat": 45.0706215902, "lng": 7.6838104592, "name": "MY QUEEN SHOES"}, "1100709": {"current_cursor": "1253774257336656680", "cursor_init": "2178309591776519632", "lat": 45.0664049583, "lng": 7.6887374555, "name": "Piazza Carlina"}, "111644100388966": {"current_cursor": "2084389617022532661", "cursor_init": "2204563557877268536", "lat": 45.06605, "lng": 7.68805, "name": "Piazza Carlina"}, "111962690249194": {"current_cursor": "2201155914208197747", "cursor_init": "2201155914208197747", "lat": 45.06751, "lng": 7.6897, "name": "Biblioteca dell'Accademia Albertina di Belle Arti di Torino"}, "112366003541174": {"current_cursor": "2198877681345553677", "cursor_init": "2210284903610758796", "lat": 45.06275, "lng": 7.70084, "name": "Soffice pizza e sfizi"}, "112422583552468": {"current_cursor": "2194548329086628541", "cursor_init": "2206714891906237230", "lat": 45.05851, "lng": 7.68055, "name": "Locanda TerraMare"}, "1133790123331566": {"current_cursor": "2137237752303996951", "cursor_init": "2211265849015920343", "lat": 45.06949, "lng": 7.663, "name": "Piano35 lounge bar"}, "113462037": {"current_cursor": "1483538368357103603", "cursor_init": "2211198408549719746", "lat": 45.07316, "lng": 7.69507, "name": "Anastasia Acconciatori"}, "113526973381723": {"current_cursor": "2183445543146034427", "cursor_init": "2192177641457527773", "lat": 45.0625615513, "lng": 7.6826616433, "name": "Ruspante"}, "114070122552228": {"current_cursor": "1893127544459890338", "cursor_init": "2140496342203197674", "lat": 45.0684526, "lng": 7.6942959, "name": "Eco di Marc Didou"}, "114223743310705": {"current_cursor": "2203424470132266039", "cursor_init": "2203662452751627163", "lat": 45.0655097581, "lng": 7.6938383563, "name": "Look to Piazza Vittorio 8"}, "114666252436339": {"current_cursor": "2217100144705359640", "cursor_init": "2198668586204686450", "lat": 45.0667, "lng": 7.7, "name": "Panchina degli Innamorati, Parco del Valentino"}, "1174603": {"current_cursor": "2193759621031249986", "cursor_init": "2211259075166136755", "lat": 44.9966802097, "lng": 7.6062316284, "name": "Palazzina di caccia di Stupinigi"}, "1187508734687859": {"current_cursor": "1663822901642962544", "cursor_init": "2210984889268895024", "lat": 45.0693399, "lng": 7.67855, "name": "St. Andrew's Torino Gentleman store"}, "119089494797645": {"current_cursor": "903873835558079948", "cursor_init": "2211305193140702941", "lat": 45.06969, "lng": 7.70493, "name": "Torino casa mia"}, "1208809242587196": {"current_cursor": "1765148214070931439", "cursor_init": "2209732018167184367", "lat": 45.07095, "lng": 7.67763, "name": "PANK ristorante"}, "123776921656894": {"current_cursor": "2322128835717796816", "cursor_init": "2210907911501289499", "lat": 45.075102815, "lng": 7.645507893, "name": "Corso Vittorio Emanuele, Torino"}, "1255645": {"current_cursor": "880399328062546720", "cursor_init": "2202987291535365328", "lat": 45.0678, "lng": 7.69698, "name": "Fetta Di Polenta"}, "1257862": {"current_cursor": "2133348005700149310", "cursor_init": "2211302018430247906", "lat": 45.0692901092, "lng": 7.6849586298, "name": "Piazza Carignano"}, "128132727260611": {"current_cursor": "2172083207029943180", "cursor_init": "2210577316491915874", "lat": 45.0317495706, "lng": 7.6738175365, "name": "Museo dell'automobile di Torino"}, "129784143838142": {"current_cursor": "1268320127745849464", "cursor_init": "2198122255653958930", "lat": 45.08182, "lng": 7.66891, "name": "Elda Elegance"}, "131679483645861": {"current_cursor": "1584145707904055127", "cursor_init": "1621776908324116972", "lat": 45.0714227, "lng": 7.68499142, "name": "Piazza Castello Torino"}, "132496810629774": {"current_cursor": "2165323831747554114", "cursor_init": "2211199383240815709", "lat": 45.06949, "lng": 7.663, "name": "Grattacielo Intesa Sanpaolo Torino"}, "1328477663907325": {"current_cursor": "1527451573609130456", "cursor_init": "2198144906346802066", "lat": 45.07589, "lng": 7.69523, "name": "Bottega Ranzani"}, "1329207847183309": {"current_cursor": "1812333779164239812", "cursor_init": "2201847083353988717", "lat": 45.06187, "lng": 7.68677, "name": "La Drogheria Pugliese"}, "1334261": {"current_cursor": "1774973583011816071", "cursor_init": "2211335202737975259", "lat": 45.0688759059, "lng": 7.6930689812, "name": "Mole Antonelliana"}, "136552226974730": {"current_cursor": "1610417892711883651", "cursor_init": "2201187404228993615", "lat": 45.0688083333, "lng": 7.66687, "name": "Torino, Corso Vinzaglio"}, "1376917609212385": {"current_cursor": "1650149167723952761", "cursor_init": "2201636291502781411", "lat": 45.07117, "lng": 7.68262, "name": "ORAFI MEVLAT"}, "137770": {"current_cursor": "1397985053221206851", "cursor_init": "2105103542676237164", "lat": 45.0633192231, "lng": 7.6838295567, "name": "Piazza Bodoni"}, "1389231328072594": {"current_cursor": "2082986406762321513", "cursor_init": "2210987274905205246", "lat": 45.0660441884, "lng": 7.6461715326, "name": "Alpi Empanadas"}, "1393953537402524": {"current_cursor": "2406298847993505295", "cursor_init": "2210896063615827092", "lat": 45.0621593401, "lng": 7.7002457711, "name": "Piazza Gran Madre"}, "1398236": {"current_cursor": "2176883511764210936", "cursor_init": "2211304372341166758", "lat": 45.0686259266, "lng": 7.684418885, "name": "Museo Egizio, Torino"}, "1400201730233063": {"current_cursor": "1644255106349550858", "cursor_init": "2081058519607644380", "lat": 45.070488, "lng": 7.680393, "name": "Via Pietro Micca"}, "1402134840039043": {"current_cursor": "1773158044668341651", "cursor_init": "1903666756955156088", "lat": 45.0748333333, "lng": 7.6785555556, "name": "Palazzo Barolo"}, "140684789665964": {"current_cursor": "1587256887472361486", "cursor_init": "2211118166843592776", "lat": 45.0655891098, "lng": 7.6917372308, "name": "Il Cortile - Scarpe, Borse e Accessori"}, "1411260392454756": {"current_cursor": "1487633284698701943", "cursor_init": "2143647441942140891", "lat": 45.07629013, "lng": 7.67068005, "name": "Piazza Statuto"}, "141314509817541": {"current_cursor": "1518181987729731748", "cursor_init": "2211170187639202136", "lat": 45.0632426626, "lng": 7.6897601602, "name": "Giardini Cavour - Turin, Italy"}, "1415276025153436": {"current_cursor": "1379723183771628872", "cursor_init": "2210990807641539937", "lat": 45.06352, "lng": 7.68246, "name": "PETER'S TeaHouse Torino"}, "1416772115232433": {"current_cursor": "2211304511339966798", "cursor_init": "2211304511339966798", "lat": 45.0746108784, "lng": 7.6801634329, "name": "Museo d'arte orientale"}, "142221399811498": {"current_cursor": "2303304135321756393", "cursor_init": "2211270557039785108", "lat": 45.0236624479, "lng": 7.645894289, "name": "Via Roma Torino"}, "143166976336208": {"current_cursor": "1918183448074718193", "cursor_init": "2167745000494935630", "lat": 45.09255, "lng": 7.68823, "name": "Via Valprato 20"}, "1436912073207479": {"current_cursor": "1966814095812216759", "cursor_init": "2063357630518165360", "lat": 45.0798, "lng": 7.70678, "name": "Cimitero monumentale di Torino"}, "1442671602639295": {"current_cursor": "1245793384901835118", "cursor_init": "2208838596677527680", "lat": 45.0816024, "lng": 7.6242294, "name": "Pasticceria ChezLeila Arzilli"}, "144355706104291": {"current_cursor": "1766723710919435679", "cursor_init": "2210499546747031392", "lat": 45.0667, "lng": 7.7, "name": "Fiume Po"}, "145104169562112": {"current_cursor": "1632919133338719191", "cursor_init": "2206950986954979665", "lat": 45.0756494603, "lng": 7.6833487849, "name": "Piazza Della Repubblica"}, "145978266128532": {"current_cursor": "1651457911937097693", "cursor_init": "2210881447372329171", "lat": 45.07078617, "lng": 7.688075, "name": "Piazzetta Mollino"}, "1463053990476571": {"current_cursor": "1609364197656195696", "cursor_init": "2210970917421520149", "lat": 45.0623, "lng": 7.68556, "name": "Creative-Cables Store Torino"}, "1495627940651102": {"current_cursor": "1961268680478213620", "cursor_init": "2203095992558593757", "lat": 45.07729, "lng": 7.66806, "name": "Eli Bimbi Shop Giochi - Cartoleria - Articoli Regalo"}, "155094362": {"current_cursor": "2377204825648914665", "cursor_init": "2157481520764515006", "lat": 45.06065, "lng": 7.69946, "name": "Giardino Segreto"}, "1566546243377501": {"current_cursor": "1637898420894489744", "cursor_init": "2204426475894590095", "lat": 45.0801, "lng": 7.68703, "name": "ViadellaFucina16 condominio-museo"}, "1569953053037289": {"current_cursor": "1280430488716348449", "cursor_init": "2154660176651628557", "lat": 45.072245284, "lng": 7.686491901, "name": "Polo Reale Torino"}, "157626558431040": {"current_cursor": "1796290737333442446", "cursor_init": "2206559525994136393", "lat": 45.07277, "lng": 7.6824, "name": "Infusion Caf\u00e8"}, "15778996": {"current_cursor": "1397898576335883875", "cursor_init": "2211061634504378816", "lat": 45.06533, "lng": 7.6914, "name": "Poormanger"}, "1581164852147557": {"current_cursor": "1398005457603326093", "cursor_init": "2209869011441733373", "lat": 45.0747209, "lng": 7.678486, "name": "MUSLI - Museo della Scuola e del Libro per l'Infanzia"}, "158713655082009": {"current_cursor": "1939828639877294361", "cursor_init": "2167777507221810283", "lat": 45.0706030604, "lng": 7.6864832261, "name": "Monumento del Duca d'Aosta"}, "1606188616325361": {"current_cursor": "1898543543292949231", "cursor_init": "2209704529839246340", "lat": 45.0715603, "lng": 7.6820096, "name": "Polvere di Stefy"}, "161951450998060": {"current_cursor": "2204676429828999775", "cursor_init": "2204676429828999775", "lat": 45.0597526555, "lng": 7.6948761086, "name": "Solera"}, "1622499261349932": {"current_cursor": "2176929910497580913", "cursor_init": "2208799773008503361", "lat": 45.07116, "lng": 7.68275, "name": "Farmacia in Pillole"}, "1627799450831392": {"current_cursor": "1358289803858423261", "cursor_init": "2200959871944283005", "lat": 45.0380052004, "lng": 7.6434803009, "name": "Pizza e Fichi Torino"}, "1637653": {"current_cursor": "2344431801686144498", "cursor_init": "2210190141239243814", "lat": 45.06778, "lng": 7.68328, "name": "San Carlo dal 1973"}, "164018110955666": {"current_cursor": "1994511177863691998", "cursor_init": "2211323227104501584", "lat": 45.07336, "lng": 7.70344, "name": "OFF TOPIC"}, "1641227459285867": {"current_cursor": "2361711066874086899", "cursor_init": "2211240276077880119", "lat": 45.0680123842, "lng": 7.6903775442, "name": "Via Po, Torino"}, "1657516481206901": {"current_cursor": "2091655737349586788", "cursor_init": "2207693203776935366", "lat": 45.046549, "lng": 7.6373134, "name": "Quartiere santa rita Torino"}, "165960180664091": {"current_cursor": "1778107495078467069", "cursor_init": "2006666149044939159", "lat": 45.0739508795, "lng": 7.677475262, "name": "Antica Farmacia Bosio"}, "1666106053646976": {"current_cursor": "1136939807953901075", "cursor_init": "2210489499090807838", "lat": 45.073958435, "lng": 7.6819863999, "name": "GAM - Galleria Civica D'arte Moderna e Contemporanea"}, "166727783927450": {"current_cursor": "1659298554009907299", "cursor_init": "2209495545387657783", "lat": 45.0655, "lng": 7.67949, "name": "Bullfrog Modern Electric Barber"}, "16810804": {"current_cursor": "1379027629328109767", "cursor_init": "2199580115334854129", "lat": 45.072138107, "lng": 7.6798268975, "name": "Museo del Risparmio"}, "1689737147723091": {"current_cursor": "1541428749224851341", "cursor_init": "2192099859339814839", "lat": 45.0705571, "lng": 7.6773319, "name": "Fiori La Fontana"}, "1696791193906302": {"current_cursor": "1235725637703576323", "cursor_init": "2201487142857890365", "lat": 45.0655284128, "lng": 7.6917980119, "name": "Via delle Rosine, Torino"}, "17206": {"current_cursor": "2196121153618254219", "cursor_init": "2211340537743586257", "lat": 45.0709024881, "lng": 7.6849819832, "name": "Piazza Castello"}, "1723474307671262": {"current_cursor": "2321787459629077696", "cursor_init": "2209750127359389913", "lat": 45.0429601477, "lng": 7.6517800678, "name": "Parco Cavalieri di Vittorio Veneto"}, "172818500105123": {"current_cursor": "2210532351841817054", "cursor_init": "2211281756651415472", "lat": 45.0302004, "lng": 7.661891, "name": "DoubleTree by Hilton Turin Lingotto"}, "173277630031973": {"current_cursor": "1797915302411963172", "cursor_init": "2204812503461164272", "lat": 45.079903025, "lng": 7.691124, "name": "Condividere"}, "1740285799627713": {"current_cursor": "1408840733427741554", "cursor_init": "2208058762659480121", "lat": 45.07708, "lng": 7.66799, "name": "La Bottega di Mastro Taricco"}, "177448989623180": {"current_cursor": "2412538562060638126", "cursor_init": "2198895420743760818", "lat": 45.06976, "lng": 7.68648, "name": "Caff\u00e8 Baratti & Milano"}, "1780193968968643": {"current_cursor": "1534131504962180021", "cursor_init": "2079276513132736918", "lat": 45.0715999, "lng": 7.67714, "name": "Palazzo della Luce"}, "181488199467195": {"current_cursor": "1917742487624167710", "cursor_init": "2169929894262254915", "lat": 45.0685, "lng": 7.69922, "name": "Bel & Bon Vanchiglia"}, "185330365010319": {"current_cursor": "1638368862066160336", "cursor_init": "2131166766712716219", "lat": 45.0692, "lng": 7.68496, "name": "Piazza Carignano"}, "1854087764605609": {"current_cursor": "1375799139874414337", "cursor_init": "2204732522403487558", "lat": 45.05704281, "lng": 7.69473176, "name": "Piazza Crimea - Torino"}, "1860941777329751": {"current_cursor": "1861793683406449562", "cursor_init": "2195907203085507666", "lat": 45.07262, "lng": 7.66527, "name": "Barbon25"}, "1873862446276896": {"current_cursor": "1139381185166622569", "cursor_init": "2211129474083872879", "lat": 45.0623276802, "lng": 7.6948302754, "name": "Murazzi"}, "18913301": {"current_cursor": "1414480386196781976", "cursor_init": "2209532841482546189", "lat": 45.0728105418, "lng": 7.6850603806, "name": "Palazzo Chiablese"}, "18915320": {"current_cursor": "1391657003604992123", "cursor_init": "2210193200254205770", "lat": 45.065814867, "lng": 7.689873316, "name": "Parrot and Palm"}, "1910113005733566": {"current_cursor": "1374659684145264955", "cursor_init": "2210963125235324810", "lat": 45.0498764393, "lng": 7.6839280128, "name": "Giardino Roccioso"}, "192056428079190": {"current_cursor": "1357122228348547472", "cursor_init": "2208734523636718501", "lat": 45.0632037245, "lng": 7.6920158957, "name": "Piazza Maria Teresa"}, "1922561834506524": {"current_cursor": "1900750614569467798", "cursor_init": "2210477584593182078", "lat": 45.06196, "lng": 7.68831, "name": "La Camera Incantata"}, "1937999319857660": {"current_cursor": "1619639974070944211", "cursor_init": "2203002693295902126", "lat": 45.06353, "lng": 7.68565, "name": "Collegio San Giuseppe, Torino"}, "196050573757644": {"current_cursor": "927038948305660658", "cursor_init": "2209077914595570228", "lat": 45.0743160415, "lng": 7.6806218081, "name": "Las Rosas Ristoranti Messicani a Torino"}, "197653033762856": {"current_cursor": "2307070116937859120", "cursor_init": "2168664524336048366", "lat": 45.073006, "lng": 7.681729, "name": "Piazza Palazzo di Citt\u00e0"}, "2002564179826817": {"current_cursor": "1945331797059930118", "cursor_init": "2204038919132168567", "lat": 45.0677, "lng": 7.68783, "name": "Antonio Grazioso Hair Lab"}, "2013141982240592": {"current_cursor": "2344441891644549307", "cursor_init": "2206793191171603381", "lat": 45.0667, "lng": 7.7, "name": "Giardini Reali - Piazza Castello - Torino"}, "2034908889858706": {"current_cursor": "1988172457592271509", "cursor_init": "2211219180272284852", "lat": 45.0467236362, "lng": 7.6831425929, "name": "Fontana Dei 12 Mesi"}, "2043560539220440": {"current_cursor": "2338647963139764208", "cursor_init": "2211318484949441528", "lat": 45.0609213038, "lng": 7.6898348874, "name": "Via Mazzini Torino"}, "206304216241540": {"current_cursor": "1137786858781758000", "cursor_init": "2056037345139999806", "lat": 45.076913, "lng": 7.638546, "name": "Villa La Tesoriera"}, "2068445810127772": {"current_cursor": "2408253623128001785", "cursor_init": "2211016498030391680", "lat": 45.0648909696, "lng": 7.6691889234, "name": "GAM Torino"}, "2070651973220624": {"current_cursor": "1722790036044644269", "cursor_init": "2206617060579190128", "lat": 45.0661101218, "lng": 7.6944610476, "name": "TOUCH Studio di Osteopatia"}, "20845534": {"current_cursor": "2198635417851973551", "cursor_init": "2198635417851973551", "lat": 45.04768, "lng": 7.67993, "name": "DUPARC ORIENTAL SPA"}, "2106603736229147": {"current_cursor": "1774885204142658500", "cursor_init": "2211346062623452068", "lat": 45.0702, "lng": 7.6777, "name": "Piazza Palazzo di Citta\u2019"}, "213712554": {"current_cursor": "1321732895664460979", "cursor_init": "2209488771502410503", "lat": 45.0717583406, "lng": 7.6660066088, "name": "Stazione di Torino Porta Susa"}, "214583355814802": {"current_cursor": "1949300574711033560", "cursor_init": "2040619792666303862", "lat": 45.0650818788, "lng": 7.6692546522, "name": "Amici Biblioteca d'Arte Musei Civici Torino"}, "214629420": {"current_cursor": "1412464751677963383", "cursor_init": "2211328544861167877", "lat": 45.0343729107, "lng": 7.6667458378, "name": "Centro Commerciale Lingotto"}, "2150551": {"current_cursor": "1201678550195757694", "cursor_init": "2126363083911316278", "lat": 45.0340152865, "lng": 7.7143412225, "name": "Parco Della Maddalena"}, "216144795480207": {"current_cursor": "1460866967887069001", "cursor_init": "2211248284127758468", "lat": 45.1280164728, "lng": 7.7377223969, "name": "Torino Outlet Village"}, "2162814167312105": {"current_cursor": "1896431169063366844", "cursor_init": "2200316648808805897", "lat": 45.057820323, "lng": 7.6347771272, "name": "Piadineria Ruffini"}, "216953455438752": {"current_cursor": "1477812645297698212", "cursor_init": "2210292057967397903", "lat": 45.06151, "lng": 7.68409, "name": "Bricks-Ristorante-Pizza"}, "217100978": {"current_cursor": "1377118211354858039", "cursor_init": "2126211142379972330", "lat": 45.06498, "lng": 7.66974, "name": "Galleria d'arte Moderna - GAM Torino"}, "218049156": {"current_cursor": "2133754126474537116", "cursor_init": "2211248717718791886", "lat": 45.0690467, "lng": 7.6930523, "name": "Museo Nazionale del Cinema di Torino"}, "218649309": {"current_cursor": "1924155666755345204", "cursor_init": "2211319833081959469", "lat": 45.0630154173, "lng": 7.6613065439, "name": "Politecnico di Torino"}, "219815435": {"current_cursor": "2152992776061649239", "cursor_init": "2211343627788495914", "lat": 45.0787562718, "lng": 7.7672218489, "name": "Superga, Piemonte, Italy"}, "219838819": {"current_cursor": "1749464788986444501", "cursor_init": "2211308660001568742", "lat": 45.089899, "lng": 7.643002, "name": "Parco della Pellerina"}, "220884758419033": {"current_cursor": "1465156939222436313", "cursor_init": "2149629960382057291", "lat": 45.0633408545, "lng": 7.6839799297, "name": "IL32"}, "221082977": {"current_cursor": "1359675540461879509", "cursor_init": "2126415492269898278", "lat": 45.06287, "lng": 7.6951223025, "name": "Fiume Po"}, "221512091367566": {"current_cursor": "2424136588340391616", "cursor_init": "2178350100507139036", "lat": 45.072047, "lng": 7.682624, "name": "Via Garibaldi (Torino)"}, "223705744484379": {"current_cursor": "1142309434107289133", "cursor_init": "2210230796904780540", "lat": 45.069, "lng": 7.6827, "name": "Galleria San Federico"}, "223769545125245": {"current_cursor": "1822857521129815629", "cursor_init": "1824749916369400641", "lat": 45.0720835, "lng": 7.6858452, "name": "Piazzetta Reale Torino"}, "224127963": {"current_cursor": "1224639381229794161", "cursor_init": "2211058309847396915", "lat": 45.0663759336, "lng": 7.6933792336, "name": "Museo Di Arti Decorative Accorsi - Ometto"}, "225367780": {"current_cursor": "1403717550357043664", "cursor_init": "2136419391070860820", "lat": 45.0656106902, "lng": 7.6810751982, "name": "Via Roma - Torino"}, "228379623": {"current_cursor": "1981132277542835274", "cursor_init": "2211346767585407700", "lat": 45.1352562051, "lng": 7.6255846024, "name": "Reggia di Venaria"}, "234305607": {"current_cursor": "722194458189390517", "cursor_init": "1830864122567099189", "lat": 45.0498101994, "lng": 7.6788847523, "name": "Piazza Bodoni Torino"}, "235096100": {"current_cursor": "2180159498816195985", "cursor_init": "2210928585016381423", "lat": 45.0574095627, "lng": 7.6520084819, "name": "Fondazione Sandretto Re Rebaudengo"}, "236588256": {"current_cursor": "1867171546142729885", "cursor_init": "2211339896843996641", "lat": 45.0333, "lng": 7.65, "name": "Lingotto, Piemonte, Italy"}, "236635529": {"current_cursor": "1382200079087832119", "cursor_init": "2209636811089734601", "lat": 45.0764268, "lng": 7.67886235, "name": "Smile Tree"}, "237452787": {"current_cursor": "1321304614234358846", "cursor_init": "2211087358934248170", "lat": 45.06681, "lng": 7.66835, "name": "AMICI MIEI"}, "238972371": {"current_cursor": "988956201522704349", "cursor_init": "2211059105523684246", "lat": 45.07758, "lng": 7.64703, "name": "Scultura Fiori"}, "2392023244357098": {"current_cursor": "2417585667686866357", "cursor_init": "2208239974395111311", "lat": 45.0577885693, "lng": 7.6473107138, "name": "Borgo San Paolo"}, "2392545304333267": {"current_cursor": "2183498544611249493", "cursor_init": "2211305129645776116", "lat": 45.0532982625, "lng": 7.685064479, "name": "Space Adventure"}, "239336957": {"current_cursor": "1140015686818194404", "cursor_init": "2210491831393717430", "lat": 45.02793, "lng": 7.64162, "name": "Ichi Ristorante Giapponese -Torino"}, "239571995": {"current_cursor": "1310386800732973212", "cursor_init": "1596987195868399786", "lat": 45.0810240717, "lng": 7.6287543675, "name": "Corso Bernardino Telesio"}, "242462693355235": {"current_cursor": "2083469747552370276", "cursor_init": "2205409737820983778", "lat": 45.0661802152, "lng": 7.6917546988, "name": "GuacaMole - Sushi Burrito"}, "246268532": {"current_cursor": "1161023834355240423", "cursor_init": "1560272610288375549", "lat": 45.1350496, "lng": 7.6259117, "name": "Cappella di Sant'Uberto della Reggia di Venaria"}, "246530624": {"current_cursor": "1412502155441450948", "cursor_init": "2169541515755289608", "lat": 45.0650291937, "lng": 7.6897182316, "name": "Lungo Po, Torino"}, "2477680765791495": {"current_cursor": "1909535033435903395", "cursor_init": "2199611765285795727", "lat": 45.06858, "lng": 7.66624, "name": "Past\u00f3"}, "249367568": {"current_cursor": "1253776560682577114", "cursor_init": "2209127297045881469", "lat": 45.030746673, "lng": 7.656459415, "name": "Passerella Olimpica Torino"}, "249760625": {"current_cursor": "1370329553902153747", "cursor_init": "2210978410946688149", "lat": 45.0688797, "lng": 7.6858971, "name": "Museo Nazionale del Risorgimento Italiano di Torino"}, "250615188": {"current_cursor": "2179936264408980313", "cursor_init": "2211345948530537065", "lat": 45.0710050897, "lng": 7.6855802536, "name": "Torino Centro"}, "251042930": {"current_cursor": "1309211641140989940", "cursor_init": "2207680106039203340", "lat": 45.06243, "lng": 7.68062, "name": "Starhotels Majestic - Torino"}, "251427879": {"current_cursor": "499192612175477459", "cursor_init": "2144611376115608166", "lat": 45.13013, "lng": 7.62756, "name": "La Mandria Venaria"}, "25185": {"current_cursor": "1459665739598249942", "cursor_init": "2141323335909392131", "lat": 45.069154109, "lng": 7.6772410071, "name": "Piazza Solferino"}, "252644021965651": {"current_cursor": "1805436538613163498", "cursor_init": "2209693116861085293", "lat": 45.06196, "lng": 7.69427, "name": "Bomaki Uramakeria"}, "253115604": {"current_cursor": "1377465204329575411", "cursor_init": "2211181097501589227", "lat": 45.1274849429, "lng": 7.6347633121, "name": "Venaria, Piemonte, Italy"}, "253649322": {"current_cursor": "2061933065429176067", "cursor_init": "2211341253776839579", "lat": 45.0578709397, "lng": 7.6873385158, "name": "Discoteca Life Torino"}, "2549090268450780": {"current_cursor": "2035770403210437579", "cursor_init": "2209030049315929333", "lat": 45.05246, "lng": 7.67591, "name": "Cor Gioielli"}, "255803208": {"current_cursor": "1707540286610973248", "cursor_init": "2210502330676770910", "lat": 45.0730116668, "lng": 7.685842365, "name": "Musei Reali Torino"}, "256964211436158": {"current_cursor": "2204193191843021916", "cursor_init": "2204193191843021916", "lat": 45.0695858, "lng": 7.6985721, "name": "Goja"}, "257103187962465": {"current_cursor": "1626823224624342813", "cursor_init": "1626823224624342813", "lat": 45.0718, "lng": 7.66189, "name": "Carlo RE Real Estate"}, "257911403": {"current_cursor": "2407595682515165380", "cursor_init": "2094278813950347761", "lat": 45.0618573139, "lng": 7.6944051404, "name": "Murazzi Del Po - Torino"}, "260703890": {"current_cursor": "2235526626410697173", "cursor_init": "2209070775236016917", "lat": 45.06909, "lng": 7.68848, "name": "Bar Abrate"}, "261897925": {"current_cursor": "1198735587554237362", "cursor_init": "2205626565931953395", "lat": 45.06284, "lng": 7.68397, "name": "Alla Lettera"}, "262323273": {"current_cursor": "1619138614695033785", "cursor_init": "2211337620738005222", "lat": 45.0695045203, "lng": 7.685022515, "name": "Del  Cambio"}, "262548761": {"current_cursor": "1355670871448798732", "cursor_init": "2204503966255943171", "lat": 45.0635695758, "lng": 7.6795352737, "name": "Giardini Sambuy"}, "263691735": {"current_cursor": "1808272600059369667", "cursor_init": "2210330079544811715", "lat": 45.05427, "lng": 7.68131, "name": "Consolato della Repubblica Socialista del Vietnam a Torino"}, "264969409": {"current_cursor": "2200871806532535467", "cursor_init": "2200871806532535467", "lat": 45.06515, "lng": 7.6866, "name": "Camera di commercio di Torino"}, "266873134": {"current_cursor": "2179062045063500464", "cursor_init": "2179062045063500464", "lat": 45.0816380151, "lng": 7.63413854, "name": "Torino Gran Madre"}, "267587522": {"current_cursor": "2210405753748283319", "cursor_init": "2210405753748283319", "lat": 45.04627, "lng": 7.67312, "name": "Hotel Plaza Torino"}, "2696631": {"current_cursor": "2185661847846494657", "cursor_init": "2185661847846494657", "lat": 45.0624034752, "lng": 7.6949649391, "name": "Murazzi del Po"}, "270348937155316": {"current_cursor": "2192863458805568480", "cursor_init": "2192863458805568480", "lat": 45.0583727929, "lng": 7.6906737685, "name": "Arco Monumentale all'Arma di Artiglieria"}, "271827141": {"current_cursor": "1515490911746964990", "cursor_init": "1515490911746964990", "lat": 45.086182025, "lng": 7.6656970117, "name": "Via Livorno"}, "272256663": {"current_cursor": "2178754635020530204", "cursor_init": "2178754635020530204", "lat": 45.09253, "lng": 7.70029, "name": "Pasticceria  Dolcearea caf\u00e9"}, "273272931": {"current_cursor": "2210593427016614012", "cursor_init": "2210593427016614012", "lat": 45.0645177895, "lng": 7.6871350545, "name": "Open Baladin Torino"}, "274119924": {"current_cursor": "2209839144525025189", "cursor_init": "2209839144525025189", "lat": 45.0532974658, "lng": 7.6850635095, "name": "Societa' Promotrice Delle Belle Arti in Torino"}, "277481896": {"current_cursor": "1871186492525938533", "cursor_init": "1871186492525938533", "lat": 45.079049, "lng": 7.683531, "name": "Porta Palazzo Borgo Dora"}, "277566985": {"current_cursor": "2208052767414118806", "cursor_init": "2208052767414118806", "lat": 45.1140532, "lng": 7.6432792, "name": "Basilica di Superga (Torino)"}, "280914207": {"current_cursor": "2211162701560812105", "cursor_init": "2211162701560812105", "lat": 45.06374, "lng": 7.69509, "name": "I love Cornetto"}, "282548267": {"current_cursor": "2210565911215500441", "cursor_init": "2210565911215500441", "lat": 45.07089, "lng": 7.67906, "name": "Diecicento Ristorante Pizzeria"}, "283329836": {"current_cursor": "2206965682669919237", "cursor_init": "2206965682669919237", "lat": 45.0423113185, "lng": 7.6713144965, "name": "Torino Piazza Castello"}, "283431498": {"current_cursor": "1596299148759180133", "cursor_init": "1596299148759180133", "lat": 45.0814487134, "lng": 7.6990706753, "name": "Moncenisio"}, "284757036": {"current_cursor": "2209598689924705918", "cursor_init": "2209598689924705918", "lat": 45.06416, "lng": 7.6925, "name": "Pizza ad Hoc Torino"}, "291279698": {"current_cursor": "2202261438075896193", "cursor_init": "2202261438075896193", "lat": 45.0746839175, "lng": 7.6829412449, "name": "Galleria Umberto I Torino"}, "291748813": {"current_cursor": "2173357953153890202", "cursor_init": "2173357953153890202", "lat": 45.0719565, "lng": 7.6732677, "name": "Officine deco parrucchieri"}, "293996461521881": {"current_cursor": "1848048645020550239", "cursor_init": "1848048645020550239", "lat": 45.1353141, "lng": 7.625478, "name": "Reggia di Venaria Reale"}, "296469645": {"current_cursor": "1527021141598716834", "cursor_init": "1527021141598716834", "lat": 45.0749451758, "lng": 7.6289624895, "name": "Corso Francia"}, "296770298": {"current_cursor": "2197153495514813287", "cursor_init": "2197153495514813287", "lat": 45.06667, "lng": 7.69024, "name": "Fondazione Luigi Einaudi onlus - Torino"}, "298058951": {"current_cursor": "2178661004246204771", "cursor_init": "2178661004246204771", "lat": 45.043616825, "lng": 7.646647945, "name": "Santa Rita - Torino"}, "29960775": {"current_cursor": "2196465022178285370", "cursor_init": "2196465022178285370", "lat": 45.079, "lng": 7.64628, "name": "Caffetteria Omar"}, "302085850521229": {"current_cursor": "2210398105726758070", "cursor_init": "2210398105726758070", "lat": 45.07669, "lng": 7.66464, "name": "Palazzo Fenoglio Le Fleur"}, "302107204": {"current_cursor": "1507451255889518699", "cursor_init": "1507451255889518699", "lat": 45.07301392, "lng": 7.68153287, "name": "Palazzo Di Citta'"}, "304541216939281": {"current_cursor": "2211203378525056774", "cursor_init": "2211203378525056774", "lat": 45.0629491478, "lng": 7.7117825043, "name": "Piazza Hermada"}, "304798535": {"current_cursor": "2193806054333258863", "cursor_init": "2193806054333258863", "lat": 45.0635630234, "lng": 7.6809186444, "name": "Crib\u00ec Boutique"}, "306200216552102": {"current_cursor": "2210287819776282133", "cursor_init": "2210287819776282133", "lat": 45.07591, "lng": 7.67049, "name": "My Queen"}, "307453091": {"current_cursor": "2082081528523361894", "cursor_init": "2082081528523361894", "lat": 45.0761559141, "lng": 7.6767497492, "name": "Cappella della Sacra Sindone"}, "308523400": {"current_cursor": "2187902503262122535", "cursor_init": "2187902503262122535", "lat": 45.0644469804, "lng": 7.651804986, "name": "Zona Crocetta(Torino)"}, "313958472": {"current_cursor": "2201501698904641275", "cursor_init": "2201501698904641275", "lat": 45.0191843991, "lng": 7.6658156723, "name": "Palazzo del Lavoro, Torino - Arch. Nervi"}, "319464830": {"current_cursor": "2210929225763029452", "cursor_init": "2210929225763029452", "lat": 45.0665696232, "lng": 7.6601423163, "name": "OGR - Officine Grandi Riparazioni Torino"}, "32284259": {"current_cursor": "2211078198825862017", "cursor_init": "2211078198825862017", "lat": 45.07213, "lng": 7.66167, "name": "Caffe D Acaja"}, "323707494": {"current_cursor": "2211135729913321689", "cursor_init": "2211135729913321689", "lat": 45.06311, "lng": 7.69918, "name": "Pasticceria Sabauda"}, "32376423": {"current_cursor": "2210926036420478989", "cursor_init": "2210926036420478989", "lat": 45.0678515063, "lng": 7.6951668632, "name": "Rock Burger Torino"}, "323998618": {"current_cursor": "2126318561927899567", "cursor_init": "2126318561927899567", "lat": 45.0497734895, "lng": 7.6756702021, "name": "Via Nizza Torino Italy"}, "324147596": {"current_cursor": "2210012315466612414", "cursor_init": "2210012315466612414", "lat": 45.0676886071, "lng": 7.6806375416, "name": "The Number 6"}, "326022354621334": {"current_cursor": "2211032387513698698", "cursor_init": "2211032387513698698", "lat": 45.0702, "lng": 7.6777, "name": "Faro della Vittoria Colle della Maddalena"}, "3396721": {"current_cursor": "2211179492744577789", "cursor_init": "2211179492744577789", "lat": 45.0690689449, "lng": 7.6853792001, "name": "Palazzo Carignano"}, "342212206619677": {"current_cursor": "2201888682303117420", "cursor_init": "2201888682303117420", "lat": 45.07125, "lng": 7.6754, "name": "Hermosa -beauty studio & training center"}, "347948178599659": {"current_cursor": "2209855720120183874", "cursor_init": "2209855720120183874", "lat": 45.0577349478, "lng": 7.6806230087, "name": "Alma Latina"}, "349345807": {"current_cursor": "2211047454485890729", "cursor_init": "2211047454485890729", "lat": 45.032966837, "lng": 7.6659859045, "name": "Pinacoteca Giovanni e Marella Agnelli"}, "350582": {"current_cursor": "2211320084991138464", "cursor_init": "2211320084991138464", "lat": 45.0705598851, "lng": 7.6879647654, "name": "Teatro Regio Torino"}, "350803858": {"current_cursor": "1566011633587117340", "cursor_init": "1566011633587117340", "lat": 45.0896381319, "lng": 7.6831312238, "name": "Corso Vigevano"}, "352268456": {"current_cursor": "2196339508833183266", "cursor_init": "2196339508833183266", "lat": 45.0690231965, "lng": 7.6929895983, "name": "Mole Antonelliana"}, "352575556": {"current_cursor": "2126335218114633220", "cursor_init": "2126335218114633220", "lat": 45.07959, "lng": 7.76641, "name": "Basilica di Superga"}, "354501278613842": {"current_cursor": "2205147589310592196", "cursor_init": "2205147589310592196", "lat": 45.0689365244, "lng": 7.6651740074, "name": "Piada Tosta"}, "357909388281997": {"current_cursor": "2209200174178275917", "cursor_init": "2209200174178275917", "lat": 45.0903232382, "lng": 7.6849579811, "name": "EDIT_Lofts"}, "3592020": {"current_cursor": "2211335966327710859", "cursor_init": "2211335966327710859", "lat": 45.13326, "lng": 7.63274, "name": "Venaria Reale"}, "360547853": {"current_cursor": "2204444749620583951", "cursor_init": "2204444749620583951", "lat": 45.0680861506, "lng": 7.684489671, "name": "Chiesa di San Filippo Neri (Torino)"}, "361778457551578": {"current_cursor": "1762675293225764790", "cursor_init": "1762675293225764790", "lat": 45.07659, "lng": 7.67099, "name": "La Fabbrica della Pizza"}, "36977319": {"current_cursor": "2197928436185019242", "cursor_init": "2197928436185019242", "lat": 45.0734948826, "lng": 7.6991409532, "name": "Campus Luigi Einaudi"}, "369918136935797": {"current_cursor": "2157692114989802428", "cursor_init": "2157692114989802428", "lat": 45.06583, "lng": 7.70397, "name": "Parco Culturale Michelotti"}, "370176136": {"current_cursor": "1513967288741529544", "cursor_init": "1513967288741529544", "lat": 45.04337, "lng": 7.655, "name": "Piazza D'armi Campetti"}, "370326170206332": {"current_cursor": "2211251066031362036", "cursor_init": "2211251066031362036", "lat": 45.06853, "lng": 7.67836, "name": "Corte Alfieri"}, "3715823": {"current_cursor": "1590022642887042546", "cursor_init": "1590022642887042546", "lat": 45.07299, "lng": 7.67869, "name": "Palazzo Scaglia Di Verrua"}, "385399961895949": {"current_cursor": "2211101930164929954", "cursor_init": "2211101930164929954", "lat": 45.0699915346, "lng": 7.6901378373, "name": "Cavallerizza Irreale"}, "390329847": {"current_cursor": "2197431270450878020", "cursor_init": "2197431270450878020", "lat": 45.0756008301, "lng": 7.686978557, "name": "Parco Porte Palatine"}, "392965504597974": {"current_cursor": "2211021792710126852", "cursor_init": "2211021792710126852", "lat": 45.07165, "lng": 7.68635, "name": "Armeria Reale"}, "394934341": {"current_cursor": "1514551522422208567", "cursor_init": "1514551522422208567", "lat": 45.052697151, "lng": 7.6764203841, "name": "Dentera Superga"}, "3964132": {"current_cursor": "2208864588410306503", "cursor_init": "2208864588410306503", "lat": 45.0617113659, "lng": 7.6644349513, "name": "Al Fante"}, "396591562": {"current_cursor": "1451661465706496423", "cursor_init": "1451661465706496423", "lat": 45.06405, "lng": 7.70422, "name": "Bar Pizzeria La Collina"}, "397429377": {"current_cursor": "2211322970570711376", "cursor_init": "2211322970570711376", "lat": 45.0583, "lng": 7.70824, "name": "Villa della Regina"}, "397771947371088": {"current_cursor": "2211045552930532645", "cursor_init": "2211045552930532645", "lat": 45.07126, "lng": 7.67625, "name": "Balik Restaurant"}, "399447250396755": {"current_cursor": "2190631273771434023", "cursor_init": "2190631273771434023", "lat": 45.05835, "lng": 7.6627, "name": "Japs\u2022cucinagiapponese"}, "400423368": {"current_cursor": "2211053520396821582", "cursor_init": "2211053520396821582", "lat": 45.06848, "lng": 7.68682, "name": "Biblioteca nazionale di Torino"}, "400447614069023": {"current_cursor": "2192046964544213789", "cursor_init": "2192046964544213789", "lat": 45.0571399, "lng": 7.69376, "name": "Borgo Crimea"}, "402910226788140": {"current_cursor": "2209647826800028079", "cursor_init": "2209647826800028079", "lat": 45.08091, "lng": 7.6924, "name": "Nuvola Lavazza"}, "403323067": {"current_cursor": "2142120823046093649", "cursor_init": "2142120823046093649", "lat": 45.0607145632, "lng": 7.6866960526, "name": "Retr\u00f2 Bottega"}, "406868117": {"current_cursor": "2210454800957590726", "cursor_init": "2210454800957590726", "lat": 45.072108, "lng": 7.680599, "name": "M.A.O"}, "408380793073266": {"current_cursor": "2208267984601044897", "cursor_init": "2208267984601044897", "lat": 45.07583489, "lng": 7.682573445, "name": "Affini Porta Palazzo"}, "411224419294909": {"current_cursor": "2202944786617295941", "cursor_init": "2202944786617295941", "lat": 45.0727673334, "lng": 7.6840215002, "name": "Casa Giglio"}, "414200146": {"current_cursor": "2196530393302171852", "cursor_init": "2196530393302171852", "lat": 45.0500347694, "lng": 7.684555122, "name": "Lampioni Innamorati"}, "423242534459461": {"current_cursor": "2036282868489517286", "cursor_init": "2036282868489517286", "lat": 45.0727251899, "lng": 7.6831056573, "name": "Studio Emmequadro"}, "426369999": {"current_cursor": "2073524795194584335", "cursor_init": "2073524795194584335", "lat": 45.0841725, "lng": 7.6166413, "name": "Venaria"}, "426899310763477": {"current_cursor": "2211189807334553793", "cursor_init": "2211189807334553793", "lat": 45.07137, "lng": 7.63159, "name": "Dandy's Club Barber Shop"}, "42787829": {"current_cursor": "2157607898682311645", "cursor_init": "2157607898682311645", "lat": 45.06801, "lng": 7.69392, "name": "Bar Genesi"}, "430700597492096": {"current_cursor": "2211069824243664387", "cursor_init": "2211069824243664387", "lat": 45.06162, "lng": 7.70285, "name": "Matteo Magnabosco Architetto"}, "431765480": {"current_cursor": "2211025698169261545", "cursor_init": "2211025698169261545", "lat": 45.071377628, "lng": 7.6849862314, "name": "Chiesa di San Lorenzo"}, "441495930": {"current_cursor": "2197886859091330286", "cursor_init": "2197886859091330286", "lat": 45.0548545439, "lng": 7.6127998852, "name": "1958 DEZZUTTO Cit Turin"}, "442283132774946": {"current_cursor": "2207651381002215538", "cursor_init": "2207651381002215538", "lat": 45.054, "lng": 7.686, "name": "Parco del Valentino"}, "444511882342209": {"current_cursor": "2163423591029992609", "cursor_init": "2163423591029992609", "lat": 45.06892, "lng": 7.67714, "name": "Piazza Solferino"}, "444752219260858": {"current_cursor": "2211015111829675684", "cursor_init": "2211015111829675684", "lat": 45.06943, "lng": 7.68567, "name": "Dixie Torino"}, "445780554": {"current_cursor": "2205495352592370707", "cursor_init": "2205495352592370707", "lat": 45.056880837, "lng": 7.698483835, "name": "Villa Scott"}, "449291327": {"current_cursor": "2211044063413667445", "cursor_init": "2211044063413667445", "lat": 45.08161, "lng": 7.65438, "name": "MAU - Museo di Arte Urbana"}, "450072691": {"current_cursor": "2209750874339722449", "cursor_init": "2209750874339722449", "lat": 45.1072092706, "lng": 7.6910734177, "name": "Mufant - Museo del Fantastico e della Fantascienza di Torino"}, "450251033": {"current_cursor": "2206024818587862826", "cursor_init": "2206024818587862826", "lat": 45.0572205, "lng": 7.66818, "name": "Carlo Fiori - Maitre Fleuriste dal 1925"}, "451084088326477": {"current_cursor": "1792384261455932692", "cursor_init": "1792384261455932692", "lat": 45.0751444, "lng": 7.6372028, "name": "Corso Francia"}, "45132595": {"current_cursor": "1762450337635206034", "cursor_init": "1762450337635206034", "lat": 45.0547054525, "lng": 7.6809704525, "name": "Via Madama Cristina"}, "453353978": {"current_cursor": "2210497834238113320", "cursor_init": "2210497834238113320", "lat": 45.0330479187, "lng": 7.6659926694, "name": "Pinacoteca Agnelli"}, "453838837": {"current_cursor": "2209061070866340575", "cursor_init": "2209061070866340575", "lat": 45.0694384493, "lng": 7.6888893927, "name": "Palazzo Del Rettorato- Universit\u00e0 Degli Studi Di Torino"}, "45413665": {"current_cursor": "2211135926718146811", "cursor_init": "2211135926718146811", "lat": 45.07165, "lng": 7.68634, "name": "Biblioteca Reale di Torino"}, "459409862": {"current_cursor": "2211046929081812914", "cursor_init": "2211046929081812914", "lat": 45.0733217182, "lng": 7.6853978634, "name": "Duomo di San Giovanni Battista (Torino)"}, "469563540": {"current_cursor": "2205000103404366177", "cursor_init": "2205000103404366177", "lat": 45.04277, "lng": 7.67114, "name": "Piazza Carducci a Torino"}, "47029670": {"current_cursor": "2211261282770935927", "cursor_init": "2211261282770935927", "lat": 45.0623704173, "lng": 7.6787111163, "name": "Torino Porta Nuova"}, "470865618": {"current_cursor": "2211235128852709231", "cursor_init": "2211235128852709231", "lat": 45.0677, "lng": 7.68257, "name": "Piazza San Carlo"}, "470941236752393": {"current_cursor": "2193124324534243949", "cursor_init": "2193124324534243949", "lat": 45.06097, "lng": 7.64139, "name": "Spazio Lancia Torino"}, "472672223": {"current_cursor": "2211309363032306014", "cursor_init": "2211309363032306014", "lat": 45.0656512, "lng": 7.6892899, "name": "NH Collection Torino Piazza Carlina"}, "474608379311216": {"current_cursor": "1968259640304881511", "cursor_init": "1968259640304881511", "lat": 45.057, "lng": 7.65217, "name": "Fondazione Sandretto Re Rebaudengo"}, "4762009": {"current_cursor": "1513365139277292855", "cursor_init": "1513365139277292855", "lat": 45.070186271, "lng": 7.700185604, "name": "Piazza Santa Giulia"}, "477073920": {"current_cursor": "2193660101487963742", "cursor_init": "2193660101487963742", "lat": 45.06687, "lng": 7.68218, "name": "Chiesa di Santa Cristina"}, "479180362190501": {"current_cursor": "2209757878794331270", "cursor_init": "2209757878794331270", "lat": 45.06949187, "lng": 7.6864922, "name": "Galleria Subalpina"}, "484887": {"current_cursor": "2210909068894344809", "cursor_init": "2210909068894344809", "lat": 45.0682457054, "lng": 7.6947710861, "name": "Universit\u00e0 di Torino - Palazzo Nuovo"}, "486039439": {"current_cursor": "2183476166347327545", "cursor_init": "2183476166347327545", "lat": 45.0690645545, "lng": 7.6949109822, "name": "L'accademiadelpanino"}, "490973932": {"current_cursor": "2126803518053527428", "cursor_init": "2126803518053527428", "lat": 45.0727356263, "lng": 7.6686502341, "name": "Murazzi"}, "494633354": {"current_cursor": "2211278042395902793", "cursor_init": "2211278042395902793", "lat": 45.0288472699, "lng": 7.6637579128, "name": "Lingotto Fiere Torino"}, "495606705": {"current_cursor": "2210966956304047878", "cursor_init": "2210966956304047878", "lat": 45.0673922779, "lng": 7.6894788163, "name": "Accademia Albertina"}, "498282143892292": {"current_cursor": "2150071339944353280", "cursor_init": "2150071339944353280", "lat": 45.0544, "lng": 7.65386, "name": "Piazza Don Franco Delpiano - Torino"}, "501920306858549": {"current_cursor": "2045271468295733352", "cursor_init": "2045271468295733352", "lat": 45.0205056, "lng": 7.6580006, "name": "Lingotto Torino"}, "504918553234571": {"current_cursor": "2166951876986205451", "cursor_init": "2166951876986205451", "lat": 45.06443, "lng": 7.67502, "name": "Cappelleriaregge_torino"}, "509365132865749": {"current_cursor": "2204502381211876441", "cursor_init": "2204502381211876441", "lat": 45.0677133305, "lng": 7.6582283434, "name": "Piazza Benefica"}, "511742": {"current_cursor": "2211240136354696397", "cursor_init": "2211240136354696397", "lat": 45.0650276226, "lng": 7.6954357986, "name": "Piazza Vittorio Veneto"}, "513166855696320": {"current_cursor": "2125609038868755205", "cursor_init": "2125609038868755205", "lat": 45.0672158851, "lng": 7.6853192191, "name": "Via Carlo Alberto"}, "513842475398858": {"current_cursor": "2117147870397466926", "cursor_init": "2117147870397466926", "lat": 45.05811, "lng": 7.6918, "name": "Ponte Umberto I (Torino)"}, "522675361185427": {"current_cursor": "2124030582450556304", "cursor_init": "2124030582450556304", "lat": 45.0497591, "lng": 7.6803562, "name": "Museo di antropologia criminale Cesare Lombroso"}, "5254038": {"current_cursor": "1426895239096748854", "cursor_init": "1426895239096748854", "lat": 45.0653112144, "lng": 7.6819278291, "name": "One Apple-Torino"}, "528549073849630": {"current_cursor": "2211316384098106226", "cursor_init": "2211316384098106226", "lat": 45.0722818415, "lng": 7.6858576278, "name": "Palazzo Reale (Torino)"}, "5437310": {"current_cursor": "2211210018108292281", "cursor_init": "2211210018108292281", "lat": 45.00178, "lng": 7.68644, "name": "Castello di Moncalieri"}, "547849872242830": {"current_cursor": "2211096217336247578", "cursor_init": "2211096217336247578", "lat": 45.057672625, "lng": 7.6789780751, "name": "Parco Della Maddalena Torino"}, "559680113": {"current_cursor": "2209392619985985553", "cursor_init": "2209392619985985553", "lat": 45.0485423744, "lng": 7.684571743, "name": "Borgo Medievale Torino"}, "563119415": {"current_cursor": "2095195615723237400", "cursor_init": "2095195615723237400", "lat": 45.0142624756, "lng": 7.6678009023, "name": "Chiesa Ortodossa Romena di Moncalieri"}, "563331181": {"current_cursor": "2211333442642269016", "cursor_init": "2211333442642269016", "lat": 45.0757511786, "lng": 7.7112850359, "name": "Vanchiglia, Piemonte, Italy"}, "570484784": {"current_cursor": "2209711225239821518", "cursor_init": "2209711225239821518", "lat": 45.0328010365, "lng": 7.6659600437, "name": "Lingotto Rooftop Test Track"}, "576438732": {"current_cursor": "2211159006177665489", "cursor_init": "2211159006177665489", "lat": 45.05966, "lng": 7.69719, "name": "Museo Nazionale della Montagna"}, "579584222514140": {"current_cursor": "2211234733187251263", "cursor_init": "2211234733187251263", "lat": 45.06845, "lng": 7.66621, "name": "OPERA ingegno e creativit\u00e0"}, "590159110": {"current_cursor": "1871876768244940857", "cursor_init": "1871876768244940857", "lat": 45.0735220877, "lng": 7.699248619, "name": "Campus Einaudi Torino"}, "590173961484801": {"current_cursor": "2211304628243529373", "cursor_init": "2211304628243529373", "lat": 45.0730940539, "lng": 7.6808501202, "name": "Quadrilatero Romano, Torino"}, "598465849": {"current_cursor": "1806849743202989123", "cursor_init": "1806849743202989123", "lat": 45.07357235, "lng": 7.6827276, "name": "Piazzetta 4 Marzo"}, "603633810122484": {"current_cursor": "2103608890978500113", "cursor_init": "2103608890978500113", "lat": 45.04427, "lng": 7.60376, "name": "Mandina"}, "614278475751488": {"current_cursor": "2211206343226991292", "cursor_init": "2211206343226991292", "lat": 45.07163, "lng": 7.68481, "name": "Palazzo Madama Torino"}, "621258794": {"current_cursor": "2205323873021484712", "cursor_init": "2205323873021484712", "lat": 45.0747209, "lng": 7.678486, "name": "Palazzo Falletti di Barolo"}, "622711524444722": {"current_cursor": "2201009825216462437", "cursor_init": "2201009825216462437", "lat": 45.074632, "lng": 7.689689, "name": "Corso Regina Margherita"}, "627116986": {"current_cursor": "2196703797330264094", "cursor_init": "2196703797330264094", "lat": 45.04125, "lng": 7.76516, "name": "Osservatorio astronomico di Torino"}, "6433931": {"current_cursor": "2142816347624231124", "cursor_init": "2142816347624231124", "lat": 45.08184, "lng": 7.67433, "name": "Archivio Tipografico"}, "646702408": {"current_cursor": "2210226384681403403", "cursor_init": "2210226384681403403", "lat": 45.0740217977, "lng": 7.6861157485, "name": "Galleria Sabauda"}, "657368184594273": {"current_cursor": "2199646587847438769", "cursor_init": "2199646587847438769", "lat": 45.0696484926, "lng": 7.6778120898, "name": "Piazza Solferino"}, "657966281318626": {"current_cursor": "2211043629876338373", "cursor_init": "2211043629876338373", "lat": 45.069919, "lng": 7.6854153, "name": "Pescaria"}, "657994324364371": {"current_cursor": "2187066426054044961", "cursor_init": "2187066426054044961", "lat": 45.06107, "lng": 7.67522, "name": "La Robe"}, "658984267": {"current_cursor": "2187831037580149526", "cursor_init": "2187831037580149526", "lat": 45.093548, "lng": 7.682424, "name": "Studio65"}, "6689479": {"current_cursor": "1578321559101531549", "cursor_init": "1578321559101531549", "lat": 45.0448632595, "lng": 7.68495953, "name": "Ponte Isabella"}, "691528622": {"current_cursor": "1498485292490139537", "cursor_init": "1498485292490139537", "lat": 45.04454054, "lng": 7.68475739, "name": "Parco Regionale Della Mandria"}, "696187996": {"current_cursor": "2171862806371060980", "cursor_init": "2171862806371060980", "lat": 45.0353713517, "lng": 7.6672375264, "name": "Museo Carpano"}, "701754846": {"current_cursor": "2211080852906114676", "cursor_init": "2211080852906114676", "lat": 45.074582826, "lng": 7.6844293763, "name": "Porta Palatina"}, "710513309": {"current_cursor": "535565674831573707", "cursor_init": "535565674831573707", "lat": 45.1411858323, "lng": 7.6027114609, "name": "Parco naturale La Mandria"}, "718450127": {"current_cursor": "2211068487033083328", "cursor_init": "2211068487033083328", "lat": 45.042158, "lng": 7.671037, "name": "Carducci-Molinette"}, "719857258": {"current_cursor": "2210459603024727518", "cursor_init": "2210459603024727518", "lat": 45.05605, "lng": 7.65043, "name": "IL Pensiero"}, "744098255744419": {"current_cursor": "2211328423067001057", "cursor_init": "2211328423067001057", "lat": 45.06688, "lng": 7.68084, "name": "KOI Restaurant"}, "745674659107037": {"current_cursor": "2195322229318367427", "cursor_init": "2195322229318367427", "lat": 45.0699182666, "lng": 7.6900598958, "name": "Cupola del Guarini"}, "745881181": {"current_cursor": "2209478898732354309", "cursor_init": "2209478898732354309", "lat": 45.0669675, "lng": 7.6889511, "name": "100 Montaditos Torino - Piazza Carlina"}, "746380522142547": {"current_cursor": "2208091599901247819", "cursor_init": "2208091599901247819", "lat": 45.07089, "lng": 7.67833, "name": "Oriental Japanese Restaurant"}, "747298899": {"current_cursor": "2204439584896793964", "cursor_init": "2204439584896793964", "lat": 45.0727, "lng": 7.686, "name": "Royal Palace of Turin"}, "749934909": {"current_cursor": "1997904746658033304", "cursor_init": "1997904746658033304", "lat": 45.0690231965, "lng": 7.6929895983, "name": "Museo Del Cinema"}, "767586062": {"current_cursor": "2211148919673624499", "cursor_init": "2211148919673624499", "lat": 45.080833, "lng": 7.7675, "name": "Basilica di Superga"}, "772357": {"current_cursor": "2172093278543861322", "cursor_init": "2172093278543861322", "lat": 45.0804490801, "lng": 7.767220628, "name": "Basilica di Superga"}, "773398274": {"current_cursor": "1508553167909372158", "cursor_init": "1508553167909372158", "lat": 45.07293786, "lng": 7.6814802167, "name": "Piazza Palazzo Di Citt\u00e0"}, "776186620": {"current_cursor": "2211199578324542316", "cursor_init": "2211199578324542316", "lat": 45.0733, "lng": 7.68543, "name": "Cappella della Sacra Sindone"}, "796024301": {"current_cursor": "2205416030747164447", "cursor_init": "2205416030747164447", "lat": 45.0749184432, "lng": 7.6774485145, "name": "Piazza Savoia"}, "796354654083862": {"current_cursor": "2079203115413838382", "cursor_init": "2079203115413838382", "lat": 45.04269, "lng": 7.64353, "name": "Street Vape - Sigarette Elettroniche Torino Santa Rita"}, "808843025": {"current_cursor": "1531181968224515406", "cursor_init": "1531181968224515406", "lat": 45.0728628, "lng": 7.6910569, "name": "Monumento Al Carabiniere"}, "809075649": {"current_cursor": "2211094626438227807", "cursor_init": "2211094626438227807", "lat": 45.0938488308, "lng": 7.6827550404, "name": "Docks Dora"}, "80935": {"current_cursor": "2148741988424363297", "cursor_init": "2148741988424363297", "lat": 45.0687370846, "lng": 7.686545076, "name": "Piazza Carlo Alberto"}, "815562218607631": {"current_cursor": "2210994275441895946", "cursor_init": "2210994275441895946", "lat": 45.0664, "lng": 7.68605, "name": "Palazzo Del Carretto - Art Apartments and Guesthouse - Torino"}, "82280": {"current_cursor": "2211306220041034408", "cursor_init": "2211306220041034408", "lat": 45.0725660323, "lng": 7.6909189333, "name": "Giardini Reali"}, "829684807": {"current_cursor": "2198813266692730992", "cursor_init": "2198813266692730992", "lat": 45.06626, "lng": 7.69132, "name": "Nientedinuovo"}, "831472340": {"current_cursor": "2211022357498227654", "cursor_init": "2211022357498227654", "lat": 45.06417, "lng": 7.6907, "name": "Camera Centro Italiano per la Fotografia"}, "83903610": {"current_cursor": "2211246377699253454", "cursor_init": "2211246377699253454", "lat": 45.0454652085, "lng": 7.6801563496, "name": "25 Verde"}, "8485173": {"current_cursor": "2209774855541466556", "cursor_init": "2209774855541466556", "lat": 45.06902, "lng": 7.68458, "name": "Gelateria Pepino"}, "85754412": {"current_cursor": "2211157521610122003", "cursor_init": "2211157521610122003", "lat": 45.06445, "lng": 7.69401, "name": "Foresteria Degli Artisti Il Due"}, "863705019": {"current_cursor": "2200955363335919319", "cursor_init": "2200955363335919319", "lat": 45.05403, "lng": 7.69173, "name": "TObed b&b"}, "873990": {"current_cursor": "2211230096960897586", "cursor_init": "2211230096960897586", "lat": 45.0769013816, "lng": 7.638566388, "name": "Parco della Tesoriera"}, "874407454": {"current_cursor": "2211164358344447075", "cursor_init": "2211164358344447075", "lat": 45.068889, "lng": 7.686111, "name": "Palazzo Carignano"}, "8759022": {"current_cursor": "1872834825201413400", "cursor_init": "1872834825201413400", "lat": 45.05541, "lng": 7.65459, "name": "Corso Mediterraneo Torino"}, "876821642366031": {"current_cursor": "2206586713069993264", "cursor_init": "2206586713069993264", "lat": 45.05443, "lng": 7.67038, "name": "Erboristeria Dott.ssa Ferraiolo"}, "883883658327073": {"current_cursor": "2013966227363282095", "cursor_init": "2013966227363282095", "lat": 45.075119, "lng": 7.6481099, "name": "St Germain des pr\u00e9s"}, "884326748276933": {"current_cursor": "2179352314490431061", "cursor_init": "2179352314490431061", "lat": 45.068333, "lng": 7.684167, "name": "Galleria Sabauda"}, "887417161419738": {"current_cursor": "2211328485612555258", "cursor_init": "2211328485612555258", "lat": 45.06196, "lng": 7.69988, "name": "Collina Monte Dei Cappuccini Turin"}, "8914493": {"current_cursor": "2210626700529190460", "cursor_init": "2210626700529190460", "lat": 45.05608839, "lng": 7.70903158, "name": "Parco Villa Genero"}, "891803635": {"current_cursor": "2176864498128836868", "cursor_init": "2176864498128836868", "lat": 45.09984, "lng": 7.66164, "name": "Idealball Party"}, "892936874202553": {"current_cursor": "2210975444124202194", "cursor_init": "2210975444124202194", "lat": 45.04769, "lng": 7.67285, "name": "Japs\u2022cucinagiapponese"}, "910466856": {"current_cursor": "2211255635617092822", "cursor_init": "2211255635617092822", "lat": 45.0622, "lng": 7.6991, "name": "Chiesa della Gran Madre di Dio"}, "917196087": {"current_cursor": "2211332795142135631", "cursor_init": "2211332795142135631", "lat": 45.04771, "lng": 7.6799, "name": "DUPARC Contemporary Suites"}, "922828894548268": {"current_cursor": "2191563187623578406", "cursor_init": "2191563187623578406", "lat": 45.06136, "lng": 7.68817, "name": "Torino wine and spirits"}, "92326778": {"current_cursor": "2209787590234797911", "cursor_init": "2209787590234797911", "lat": 45.0645998994, "lng": 7.7081910021, "name": "Fratelli Sgaravatti"}, "931589418": {"current_cursor": "2206629306873042724", "cursor_init": "2206629306873042724", "lat": 45.06122226, "lng": 7.66583665, "name": "Parco Della Crocetta"}, "950747899": {"current_cursor": "2203818106619654189", "cursor_init": "2203818106619654189", "lat": 45.066480573, "lng": 7.69726407, "name": "Arci Torino"}, "953555684": {"current_cursor": "1430661065582258352", "cursor_init": "1430661065582258352", "lat": 45.0638435171, "lng": 7.6909328065, "name": "Piazza Palazzo Della Citt\u00e0, Torino"}, "9589926": {"current_cursor": "1970730124567476404", "cursor_init": "1970730124567476404", "lat": 45.0645372995, "lng": 7.6851105781, "name": "Via Cavour"}, "96508": {"current_cursor": "2211205654421470315", "cursor_init": "2211205654421470315", "lat": 45.0734173017, "lng": 7.684853789, "name": "Duomo di Torino"}, "972533168": {"current_cursor": "2192411571834153543", "cursor_init": "2192411571834153543", "lat": 45.06138, "lng": 7.68926, "name": "Dalila Anastasio Estetica torino"}, "978352075": {"current_cursor": "1924011701942887613", "cursor_init": "2148536251244975813", "lat": 45.054, "lng": 7.686, "name": "Parco del Valentino"}, "984191518": {"current_cursor": "542884845328103896", "cursor_init": "2211309668580466723", "lat": 45.07379239, "lng": 7.65665754, "name": "Cit Turin"}, "988784683": {"current_cursor": "2211291047875622760", "cursor_init": "2211291047875622760", "lat": 45.0583551833, "lng": 7.6786564667, "name": "San Salvario"}}